{
    "success": true,
    "result": [
        {
            "ID": "1359",
            "CODE": "0000495241",
            "TYPE_NAME": "Город",
            "LEFT_MARGIN": "3645",
            "RIGHT_MARGIN": "3654",
            "CITY_ID": "1359",
            "REGION_ID": "37",
            "COUNTRY_ID": "1",
            "LATITUDE": "42.983024",
            "LONGITUDE": "47.504872",
            "PARENT_ID": "37",
            "PARENT_NAME": "Республика Дагестан",
            "NAME": "Махачкала",
            "TYPE": "CITY"
        },
        {
            "ID": "1375",
            "CODE": "0000497739",
            "TYPE_NAME": "Город",
            "LEFT_MARGIN": "3571",
            "RIGHT_MARGIN": "3572",
            "CITY_ID": "1375",
            "REGION_ID": "37",
            "COUNTRY_ID": "1",
            "LATITUDE": "42.826091",
            "LONGITUDE": "47.121962",
            "PARENT_ID": "37",
            "PARENT_NAME": "Республика Дагестан",
            "NAME": "Буйнакск",
            "TYPE": "CITY"
        },
        {
            "ID": "1363",
            "CODE": "0000496256",
            "TYPE_NAME": "Город",
            "LEFT_MARGIN": "3547",
            "RIGHT_MARGIN": "3548",
            "CITY_ID": "1363",
            "REGION_ID": "37",
            "COUNTRY_ID": "1",
            "LATITUDE": "42.115243",
            "LONGITUDE": "48.186420",
            "PARENT_ID": "37",
            "PARENT_NAME": "Республика Дагестан",
            "NAME": "Дагестанские Огни",
            "TYPE": "CITY"
        },
        {
            "ID": "1361",
            "CODE": "0000495903",
            "TYPE_NAME": "Город",
            "LEFT_MARGIN": "3543",
            "RIGHT_MARGIN": "3544",
            "CITY_ID": "1361",
            "REGION_ID": "37",
            "COUNTRY_ID": "1",
            "LATITUDE": "42.057858",
            "LONGITUDE": "48.288765",
            "PARENT_ID": "37",
            "PARENT_NAME": "Республика Дагестан",
            "NAME": "Дербент",
            "TYPE": "CITY"
        },
        {
            "ID": "1364",
            "CODE": "0000496421",
            "TYPE_NAME": "Город",
            "LEFT_MARGIN": "3549",
            "RIGHT_MARGIN": "3550",
            "CITY_ID": "1364",
            "REGION_ID": "37",
            "COUNTRY_ID": "1",
            "LATITUDE": "42.571080",
            "LONGITUDE": "47.862999",
            "PARENT_ID": "37",
            "PARENT_NAME": "Республика Дагестан",
            "NAME": "Избербаш",
            "TYPE": "CITY"
        },
        {
            "ID": "1367",
            "CODE": "0000496961",
            "TYPE_NAME": "Город",
            "LEFT_MARGIN": "3555",
            "RIGHT_MARGIN": "3556",
            "CITY_ID": "1367",
            "REGION_ID": "37",
            "COUNTRY_ID": "1",
            "LATITUDE": "42.888141",
            "LONGITUDE": "47.642468",
            "PARENT_ID": "37",
            "PARENT_NAME": "Республика Дагестан",
            "NAME": "Каспийск",
            "TYPE": "CITY"
        },
        {
            "ID": "1362",
            "CODE": "0000496150",
            "TYPE_NAME": "Город",
            "LEFT_MARGIN": "3545",
            "RIGHT_MARGIN": "3546",
            "CITY_ID": "1362",
            "REGION_ID": "37",
            "COUNTRY_ID": "1",
            "LATITUDE": "43.199905",
            "LONGITUDE": "46.871334",
            "PARENT_ID": "37",
            "PARENT_NAME": "Республика Дагестан",
            "NAME": "Кизилюрт",
            "TYPE": "CITY"
        },
        {
            "ID": "1366",
            "CODE": "0000496764",
            "TYPE_NAME": "Город",
            "LEFT_MARGIN": "3553",
            "RIGHT_MARGIN": "3554",
            "CITY_ID": "1366",
            "REGION_ID": "37",
            "COUNTRY_ID": "1",
            "LATITUDE": "43.854673",
            "LONGITUDE": "46.713933",
            "PARENT_ID": "37",
            "PARENT_NAME": "Республика Дагестан",
            "NAME": "Кизляр",
            "TYPE": "CITY"
        },
        {
            "ID": "1381",
            "CODE": "0000498510",
            "TYPE_NAME": "Город",
            "LEFT_MARGIN": "3583",
            "RIGHT_MARGIN": "3584",
            "CITY_ID": "1381",
            "REGION_ID": "37",
            "COUNTRY_ID": "1",
            "LATITUDE": "43.246916",
            "LONGITUDE": "46.585518",
            "PARENT_ID": "37",
            "PARENT_NAME": "Республика Дагестан",
            "NAME": "Хасавюрт",
            "TYPE": "CITY"
        },
        {
            "ID": "19",
            "CODE": "0000073738",
            "TYPE_NAME": "Город",
            "LEFT_MARGIN": "4766",
            "RIGHT_MARGIN": "4775",
            "CITY_ID": "19",
            "REGION_ID": null,
            "COUNTRY_ID": "1",
            "LATITUDE": "55.750446",
            "LONGITUDE": "37.617494",
            "PARENT_ID": "1",
            "PARENT_NAME": "Россия",
            "NAME": "Москва",
            "TYPE": "CITY"
        },
        {
            "ID": "1516",
            "CODE": "0000537731",
            "TYPE_NAME": "Город",
            "LEFT_MARGIN": "3330",
            "RIGHT_MARGIN": "3331",
            "CITY_ID": "1516",
            "REGION_ID": "43",
            "COUNTRY_ID": "1",
            "LATITUDE": "43.356961",
            "LONGITUDE": "46.100786",
            "PARENT_ID": "1515",
            "PARENT_NAME": "Гудермесский район",
            "NAME": "Гудермес",
            "TYPE": "CITY"
        },
        {
            "ID": "30",
            "CODE": "0000103664",
            "TYPE_NAME": "Город",
            "LEFT_MARGIN": "4120",
            "RIGHT_MARGIN": "4139",
            "CITY_ID": "30",
            "REGION_ID": null,
            "COUNTRY_ID": "1",
            "LATITUDE": "59.938732",
            "LONGITUDE": "30.316229",
            "PARENT_ID": "1",
            "PARENT_NAME": "Россия",
            "NAME": "Санкт-Петербург",
            "TYPE": "CITY"
        },
        {
            "ID": "2852",
            "CODE": "0001018919",
            "TYPE_NAME": "Город",
            "LEFT_MARGIN": "579",
            "RIGHT_MARGIN": "580",
            "CITY_ID": "2852",
            "REGION_ID": "73",
            "COUNTRY_ID": "1",
            "LATITUDE": "52.651055",
            "LONGITUDE": "90.101159",
            "PARENT_ID": "73",
            "PARENT_NAME": "Республика Хакасия",
            "NAME": "Абаза",
            "TYPE": "CITY"
        },
        {
            "ID": "2833",
            "CODE": "0001015988",
            "TYPE_NAME": "Город",
            "LEFT_MARGIN": "607",
            "RIGHT_MARGIN": "626",
            "CITY_ID": "2833",
            "REGION_ID": "73",
            "COUNTRY_ID": "1",
            "LATITUDE": "53.720650",
            "LONGITUDE": "91.440355",
            "PARENT_ID": "73",
            "PARENT_NAME": "Республика Хакасия",
            "NAME": "Абакан",
            "TYPE": "CITY"
        },
        {
            "ID": "2015",
            "CODE": "0000728336",
            "TYPE_NAME": "Город",
            "LEFT_MARGIN": "2382",
            "RIGHT_MARGIN": "2383",
            "CITY_ID": "2015",
            "REGION_ID": "54",
            "COUNTRY_ID": "1",
            "LATITUDE": "53.682800",
            "LONGITUDE": "53.655701",
            "PARENT_ID": "2014",
            "PARENT_NAME": "Абдулинский район",
            "NAME": "Абдулино",
            "TYPE": "CITY"
        },
        {
            "ID": "1140",
            "CODE": "0000396437",
            "TYPE_NAME": "Город",
            "LEFT_MARGIN": "4116",
            "RIGHT_MARGIN": "4117",
            "CITY_ID": "1140",
            "REGION_ID": "31",
            "COUNTRY_ID": "1",
            "LATITUDE": "44.864953",
            "LONGITUDE": "38.157819",
            "PARENT_ID": "1139",
            "PARENT_NAME": "Абинский район",
            "NAME": "Абинск",
            "TYPE": "CITY"
        },
        {
            "ID": "2017",
            "CODE": "0000730645",
            "TYPE_NAME": "Город",
            "LEFT_MARGIN": "2149",
            "RIGHT_MARGIN": "2150",
            "CITY_ID": "2017",
            "REGION_ID": "55",
            "COUNTRY_ID": "1",
            "LATITUDE": "55.899276",
            "LONGITUDE": "53.937420",
            "PARENT_ID": "55",
            "PARENT_NAME": "Республика Башкортостан",
            "NAME": "Агидель",
            "TYPE": "CITY"
        },
        {
            "ID": "1562",
            "CODE": "0000553273",
            "TYPE_NAME": "Город",
            "LEFT_MARGIN": "3228",
            "RIGHT_MARGIN": "3229",
            "CITY_ID": "1562",
            "REGION_ID": "45",
            "COUNTRY_ID": "1",
            "LATITUDE": "56.525460",
            "LONGITUDE": "52.997251",
            "PARENT_ID": "1561",
            "PARENT_NAME": "Агрызский район",
            "NAME": "Агрыз",
            "TYPE": "CITY"
        },
        {
            "ID": "1335",
            "CODE": "0000487944",
            "TYPE_NAME": "Город",
            "LEFT_MARGIN": "3693",
            "RIGHT_MARGIN": "3694",
            "CITY_ID": "1335",
            "REGION_ID": "35",
            "COUNTRY_ID": "1",
            "LATITUDE": "44.883378",
            "LONGITUDE": "39.190963",
            "PARENT_ID": "35",
            "PARENT_NAME": "Республика Адыгея",
            "NAME": "Адыгейск",
            "TYPE": "CITY"
        },
        {
            "ID": "1564",
            "CODE": "0000553817",
            "TYPE_NAME": "Город",
            "LEFT_MARGIN": "3224",
            "RIGHT_MARGIN": "3225",
            "CITY_ID": "1564",
            "REGION_ID": "45",
            "COUNTRY_ID": "1",
            "LATITUDE": "54.862956",
            "LONGITUDE": "53.079228",
            "PARENT_ID": "1563",
            "PARENT_NAME": "Азнакаевский район",
            "NAME": "Азнакаево",
            "TYPE": "CITY"
        },
        {
            "ID": "1261",
            "CODE": "0000454629",
            "TYPE_NAME": "Город",
            "LEFT_MARGIN": "3775",
            "RIGHT_MARGIN": "3776",
            "CITY_ID": "1261",
            "REGION_ID": "33",
            "COUNTRY_ID": "1",
            "LATITUDE": "47.113922",
            "LONGITUDE": "39.425966",
            "PARENT_ID": "33",
            "PARENT_NAME": "Ростовская область",
            "NAME": "Азов",
            "TYPE": "CITY"
        },
        {
            "ID": "2860",
            "CODE": "0001021321",
            "TYPE_NAME": "Город",
            "LEFT_MARGIN": "527",
            "RIGHT_MARGIN": "528",
            "CITY_ID": "2860",
            "REGION_ID": "74",
            "COUNTRY_ID": "1",
            "LATITUDE": "51.174081",
            "LONGITUDE": "90.599991",
            "PARENT_ID": "74",
            "PARENT_NAME": "Республика Тыва",
            "NAME": "Ак-Довурак",
            "TYPE": "CITY"
        },
        {
            "ID": "1263",
            "CODE": "0000455374",
            "TYPE_NAME": "Город",
            "LEFT_MARGIN": "3880",
            "RIGHT_MARGIN": "3881",
            "CITY_ID": "1263",
            "REGION_ID": "33",
            "COUNTRY_ID": "1",
            "LATITUDE": "47.268696",
            "LONGITUDE": "39.861362",
            "PARENT_ID": "1262",
            "PARENT_NAME": "Аксайский район",
            "NAME": "Аксай",
            "TYPE": "CITY"
        },
        {
            "ID": "1430",
            "CODE": "0000507370",
            "TYPE_NAME": "Город",
            "LEFT_MARGIN": "3500",
            "RIGHT_MARGIN": "3501",
            "CITY_ID": "1430",
            "REGION_ID": "39",
            "COUNTRY_ID": "1",
            "LATITUDE": "43.039841",
            "LONGITUDE": "44.220451",
            "PARENT_ID": "1429",
            "PARENT_NAME": "Алагирский район",
            "NAME": "Алагир",
            "TYPE": "CITY"
        },
        {
            "ID": "2227",
            "CODE": "0000821776",
            "TYPE_NAME": "Город",
            "LEFT_MARGIN": "1803",
            "RIGHT_MARGIN": "1804",
            "CITY_ID": "2227",
            "REGION_ID": "59",
            "COUNTRY_ID": "1",
            "LATITUDE": "57.850811",
            "LONGITUDE": "61.695000",
            "PARENT_ID": "59",
            "PARENT_NAME": "Свердловская область",
            "NAME": "Алапаевск",
            "TYPE": "CITY"
        },
        {
            "ID": "1804",
            "CODE": "0000639174",
            "TYPE_NAME": "Город",
            "LEFT_MARGIN": "2679",
            "RIGHT_MARGIN": "2680",
            "CITY_ID": "1804",
            "REGION_ID": "50",
            "COUNTRY_ID": "1",
            "LATITUDE": "54.845830",
            "LONGITUDE": "46.562748",
            "PARENT_ID": "50",
            "PARENT_NAME": "Чувашская Республика",
            "NAME": "Алатырь",
            "TYPE": "CITY"
        },
        {
            "ID": "2975",
            "CODE": "0001050544",
            "TYPE_NAME": "Город",
            "LEFT_MARGIN": "334",
            "RIGHT_MARGIN": "335",
            "CITY_ID": "2975",
            "REGION_ID": "80",
            "COUNTRY_ID": "1",
            "LATITUDE": "58.608414",
            "LONGITUDE": "125.388222",
            "PARENT_ID": "2974",
            "PARENT_NAME": "Алданский улус",
            "NAME": "Алдан",
            "TYPE": "CITY"
        },
        {
            "ID": "2721",
            "CODE": "0000988447",
            "TYPE_NAME": "Город",
            "LEFT_MARGIN": "717",
            "RIGHT_MARGIN": "718",
            "CITY_ID": "2721",
            "REGION_ID": "71",
            "COUNTRY_ID": "1",
            "LATITUDE": "52.497022",
            "LONGITUDE": "82.773076",
            "PARENT_ID": "71",
            "PARENT_NAME": "Алтайский край",
            "NAME": "Алейск",
            "TYPE": "CITY"
        },
        {
            "ID": "794",
            "CODE": "0000314087",
            "TYPE_NAME": "Город",
            "LEFT_MARGIN": "4848",
            "RIGHT_MARGIN": "4849",
            "CITY_ID": "794",
            "REGION_ID": "18",
            "COUNTRY_ID": "1",
            "LATITUDE": "56.396229",
            "LONGITUDE": "38.711110",
            "PARENT_ID": "793",
            "PARENT_NAME": "Александровский район",
            "NAME": "Александров",
            "TYPE": "CITY"
        },
        {
            "ID": "1873",
            "CODE": "0000672852",
            "TYPE_NAME": "Город",
            "LEFT_MARGIN": "2483",
            "RIGHT_MARGIN": "2484",
            "CITY_ID": "1873",
            "REGION_ID": "52",
            "COUNTRY_ID": "1",
            "LATITUDE": "59.159386",
            "LONGITUDE": "57.586123",
            "PARENT_ID": "52",
            "PARENT_NAME": "Пермский край",
            "NAME": "Александровск",
            "TYPE": "CITY"
        },
        {
            "ID": "3081",
            "CODE": "0001073903",
            "TYPE_NAME": "Город",
            "LEFT_MARGIN": "120",
            "RIGHT_MARGIN": "121",
            "CITY_ID": "3081",
            "REGION_ID": "82",
            "COUNTRY_ID": "1",
            "LATITUDE": "50.901355",
            "LONGITUDE": "142.165420",
            "PARENT_ID": "3080",
            "PARENT_NAME": "Александровск-Сахалинский район",
            "NAME": "Александровск-Сахалинский",
            "TYPE": "CITY"
        },
        {
            "ID": "215",
            "CODE": "0000134970",
            "TYPE_NAME": "Город",
            "LEFT_MARGIN": "6038",
            "RIGHT_MARGIN": "6039",
            "CITY_ID": "215",
            "REGION_ID": "3",
            "COUNTRY_ID": "1",
            "LATITUDE": "50.629936",
            "LONGITUDE": "38.686715",
            "PARENT_ID": "214",
            "PARENT_NAME": "Алексеевский район",
            "NAME": "Алексеевка",
            "TYPE": "CITY"
        },
        {
            "ID": "631",
            "CODE": "0000252379",
            "TYPE_NAME": "Город",
            "LEFT_MARGIN": "5182",
            "RIGHT_MARGIN": "5183",
            "CITY_ID": "631",
            "REGION_ID": "14",
            "COUNTRY_ID": "1",
            "LATITUDE": "54.502810",
            "LONGITUDE": "37.066721",
            "PARENT_ID": "630",
            "PARENT_NAME": "Алексинский район",
            "NAME": "Алексин",
            "TYPE": "CITY"
        },
        {
            "ID": "2448",
            "CODE": "0000888165",
            "TYPE_NAME": "Город",
            "LEFT_MARGIN": "1470",
            "RIGHT_MARGIN": "1471",
            "CITY_ID": "2448",
            "REGION_ID": "64",
            "COUNTRY_ID": "1",
            "LATITUDE": "55.554956",
            "LONGITUDE": "98.665419",
            "PARENT_ID": "2447",
            "PARENT_NAME": "Нижнеудинский район",
            "NAME": "Алзамай",
            "TYPE": "CITY"
        },
        {
            "ID": "3106",
            "CODE": "0001079777",
            "TYPE_NAME": "Город",
            "LEFT_MARGIN": "68",
            "RIGHT_MARGIN": "69",
            "CITY_ID": "3106",
            "REGION_ID": "85",
            "COUNTRY_ID": "1",
            "LATITUDE": "44.420405",
            "LONGITUDE": "34.048372",
            "PARENT_ID": "3105",
            "PARENT_NAME": "Ялта",
            "NAME": "Алупка",
            "TYPE": "CITY"
        },
        {
            "ID": "3112",
            "CODE": "0001082858",
            "TYPE_NAME": "Город",
            "LEFT_MARGIN": "21",
            "RIGHT_MARGIN": "22",
            "CITY_ID": "3112",
            "REGION_ID": "85",
            "COUNTRY_ID": "1",
            "LATITUDE": "44.677112",
            "LONGITUDE": "34.409539",
            "PARENT_ID": "85",
            "PARENT_NAME": "Крым",
            "NAME": "Алушта",
            "TYPE": "CITY"
        },
        {
            "ID": "1569",
            "CODE": "0000555954",
            "TYPE_NAME": "Город",
            "LEFT_MARGIN": "3220",
            "RIGHT_MARGIN": "3221",
            "CITY_ID": "1569",
            "REGION_ID": "45",
            "COUNTRY_ID": "1",
            "LATITUDE": "54.900501",
            "LONGITUDE": "52.296378",
            "PARENT_ID": "1568",
            "PARENT_NAME": "Альметьевский район",
            "NAME": "Альметьевск",
            "TYPE": "CITY"
        },
        {
            "ID": "2898",
            "CODE": "0001031578",
            "TYPE_NAME": "Город",
            "LEFT_MARGIN": "463",
            "RIGHT_MARGIN": "464",
            "CITY_ID": "2898",
            "REGION_ID": "76",
            "COUNTRY_ID": "1",
            "LATITUDE": "50.229935",
            "LONGITUDE": "136.901465",
            "PARENT_ID": "76",
            "PARENT_NAME": "Хабаровский край",
            "NAME": "Амурск",
            "TYPE": "CITY"
        },
        {
            "ID": "3095",
            "CODE": "0001076377",
            "TYPE_NAME": "Город",
            "LEFT_MARGIN": "75",
            "RIGHT_MARGIN": "76",
            "CITY_ID": "3095",
            "REGION_ID": "84",
            "COUNTRY_ID": "1",
            "LATITUDE": "64.731688",
            "LONGITUDE": "177.506093",
            "PARENT_ID": "84",
            "PARENT_NAME": "Чукотский автономный округ",
            "NAME": "Анадырь",
            "TYPE": "CITY"
        },
        {
            "ID": "1142",
            "CODE": "0000397648",
            "TYPE_NAME": "Город",
            "LEFT_MARGIN": "4112",
            "RIGHT_MARGIN": "4113",
            "CITY_ID": "1142",
            "REGION_ID": "31",
            "COUNTRY_ID": "1",
            "LATITUDE": "44.894272",
            "LONGITUDE": "37.316887",
            "PARENT_ID": "1141",
            "PARENT_NAME": "Анапский район",
            "NAME": "Анапа",
            "TYPE": "CITY"
        },
        {
            "ID": "2415",
            "CODE": "0000875423",
            "TYPE_NAME": "Город",
            "LEFT_MARGIN": "1377",
            "RIGHT_MARGIN": "1378",
            "CITY_ID": "2415",
            "REGION_ID": "64",
            "COUNTRY_ID": "1",
            "LATITUDE": "52.531112",
            "LONGITUDE": "103.882611",
            "PARENT_ID": "64",
            "PARENT_NAME": "Иркутская область",
            "NAME": "Ангарск",
            "TYPE": "CITY"
        },
        {
            "ID": "577",
            "CODE": "0000233812",
            "TYPE_NAME": "Город",
            "LEFT_MARGIN": "5302",
            "RIGHT_MARGIN": "5303",
            "CITY_ID": "577",
            "REGION_ID": "13",
            "COUNTRY_ID": "1",
            "LATITUDE": "56.646801",
            "LONGITUDE": "32.265320",
            "PARENT_ID": "576",
            "PARENT_NAME": "Андреапольский район",
            "NAME": "Андреаполь",
            "TYPE": "CITY"
        },
        {
            "ID": "2577",
            "CODE": "0000930376",
            "TYPE_NAME": "Город",
            "LEFT_MARGIN": "1075",
            "RIGHT_MARGIN": "1076",
            "CITY_ID": "2577",
            "REGION_ID": "67",
            "COUNTRY_ID": "1",
            "LATITUDE": "56.077808",
            "LONGITUDE": "86.019356",
            "PARENT_ID": "67",
            "PARENT_NAME": "Кемеровская область",
            "NAME": "Анжеро-Судженск",
            "TYPE": "CITY"
        },
        {
            "ID": "3057",
            "CODE": "0001071439",
            "TYPE_NAME": "Город",
            "LEFT_MARGIN": "162",
            "RIGHT_MARGIN": "163",
            "CITY_ID": "3057",
            "REGION_ID": "82",
            "COUNTRY_ID": "1",
            "LATITUDE": "46.714777",
            "LONGITUDE": "142.527515",
            "PARENT_ID": "3056",
            "PARENT_NAME": "Анивский район",
            "NAME": "Анива",
            "TYPE": "CITY"
        },
        {
            "ID": "1001",
            "CODE": "0000353002",
            "TYPE_NAME": "Город",
            "LEFT_MARGIN": "4369",
            "RIGHT_MARGIN": "4370",
            "CITY_ID": "1001",
            "REGION_ID": "25",
            "COUNTRY_ID": "1",
            "LATITUDE": "67.568626",
            "LONGITUDE": "33.404392",
            "PARENT_ID": "25",
            "PARENT_NAME": "Мурманская область",
            "NAME": "Апатиты",
            "TYPE": "CITY"
        },
        {
            "ID": "158",
            "CODE": "0000051872",
            "TYPE_NAME": "Город",
            "LEFT_MARGIN": "6220",
            "RIGHT_MARGIN": "6221",
            "CITY_ID": "158",
            "REGION_ID": "2",
            "COUNTRY_ID": "1",
            "LATITUDE": "55.545456",
            "LONGITUDE": "37.072916",
            "PARENT_ID": "155",
            "PARENT_NAME": "Наро-Фоминский район",
            "NAME": "Апрелевка",
            "TYPE": "CITY"
        },
        {
            "ID": "1144",
            "CODE": "0000398734",
            "TYPE_NAME": "Город",
            "LEFT_MARGIN": "4106",
            "RIGHT_MARGIN": "4107",
            "CITY_ID": "1144",
            "REGION_ID": "31",
            "COUNTRY_ID": "1",
            "LATITUDE": "44.461805",
            "LONGITUDE": "39.741048",
            "PARENT_ID": "1143",
            "PARENT_NAME": "Апшеронский район",
            "NAME": "Апшеронск",
            "TYPE": "CITY"
        },
        {
            "ID": "2272",
            "CODE": "0000835097",
            "TYPE_NAME": "Город",
            "LEFT_MARGIN": "1868",
            "RIGHT_MARGIN": "1869",
            "CITY_ID": "2272",
            "REGION_ID": "59",
            "COUNTRY_ID": "1",
            "LATITUDE": "56.695465",
            "LONGITUDE": "60.850454",
            "PARENT_ID": "2271",
            "PARENT_NAME": "Сысертский район",
            "NAME": "Арамиль",
            "TYPE": "CITY"
        },
        {
            "ID": "1514",
            "CODE": "0000536588",
            "TYPE_NAME": "Город",
            "LEFT_MARGIN": "3301",
            "RIGHT_MARGIN": "3302",
            "CITY_ID": "1514",
            "REGION_ID": "43",
            "COUNTRY_ID": "1",
            "LATITUDE": "43.295046",
            "LONGITUDE": "45.868892",
            "PARENT_ID": "43",
            "PARENT_NAME": "Чеченская Республика",
            "NAME": "Аргун",
            "TYPE": "CITY"
        },
        {
            "ID": "1534",
            "CODE": "0000543975",
            "TYPE_NAME": "Город",
            "LEFT_MARGIN": "3288",
            "RIGHT_MARGIN": "3289",
            "CITY_ID": "1534",
            "REGION_ID": "44",
            "COUNTRY_ID": "1",
            "LATITUDE": "54.759949",
            "LONGITUDE": "46.267208",
            "PARENT_ID": "1533",
            "PARENT_NAME": "Ардатовский район",
            "NAME": "Ардатов",
            "TYPE": "CITY"
        },
        {
            "ID": "1437",
            "CODE": "0000508602",
            "TYPE_NAME": "Город",
            "LEFT_MARGIN": "3488",
            "RIGHT_MARGIN": "3489",
            "CITY_ID": "1437",
            "REGION_ID": "39",
            "COUNTRY_ID": "1",
            "LATITUDE": "43.175806",
            "LONGITUDE": "44.305549",
            "PARENT_ID": "1436",
            "PARENT_NAME": "Ардонский район",
            "NAME": "Ардон",
            "TYPE": "CITY"
        },
        {
            "ID": "1703",
            "CODE": "0000603418",
            "TYPE_NAME": "Город",
            "LEFT_MARGIN": "2809",
            "RIGHT_MARGIN": "2810",
            "CITY_ID": "1703",
            "REGION_ID": "48",
            "COUNTRY_ID": "1",
            "LATITUDE": "55.398946",
            "LONGITUDE": "43.840813",
            "PARENT_ID": "48",
            "PARENT_NAME": "Нижегородская область",
            "NAME": "Арзамас",
            "TYPE": "CITY"
        },
        {
            "ID": "2137",
            "CODE": "0000782686",
            "TYPE_NAME": "Город",
            "LEFT_MARGIN": "2082",
            "RIGHT_MARGIN": "2083",
            "CITY_ID": "2137",
            "REGION_ID": "57",
            "COUNTRY_ID": "1",
            "LATITUDE": "51.942913",
            "LONGITUDE": "43.489098",
            "PARENT_ID": "2136",
            "PARENT_NAME": "Аркадакский район",
            "NAME": "Аркадак",
            "TYPE": "CITY"
        },
        {
            "ID": "1135",
            "CODE": "0000390533",
            "TYPE_NAME": "Город",
            "LEFT_MARGIN": "3995",
            "RIGHT_MARGIN": "3996",
            "CITY_ID": "1135",
            "REGION_ID": "31",
            "COUNTRY_ID": "1",
            "LATITUDE": "44.999359",
            "LONGITUDE": "41.129406",
            "PARENT_ID": "31",
            "PARENT_NAME": "Краснодарский край",
            "NAME": "Армавир",
            "TYPE": "CITY"
        },
        {
            "ID": "3103",
            "CODE": "0001078209",
            "TYPE_NAME": "Город",
            "LEFT_MARGIN": "11",
            "RIGHT_MARGIN": "12",
            "CITY_ID": "3103",
            "REGION_ID": "85",
            "COUNTRY_ID": "1",
            "LATITUDE": "46.113261",
            "LONGITUDE": "33.690409",
            "PARENT_ID": "85",
            "PARENT_NAME": "Крым",
            "NAME": "Армянск",
            "TYPE": "CITY"
        },
        {
            "ID": "3017",
            "CODE": "0001059555",
            "TYPE_NAME": "Город",
            "LEFT_MARGIN": "177",
            "RIGHT_MARGIN": "178",
            "CITY_ID": "3017",
            "REGION_ID": "81",
            "COUNTRY_ID": "1",
            "LATITUDE": "44.160801",
            "LONGITUDE": "133.288911",
            "PARENT_ID": "81",
            "PARENT_NAME": "Приморский край",
            "NAME": "Арсеньев",
            "TYPE": "CITY"
        },
        {
            "ID": "1573",
            "CODE": "0000557603",
            "TYPE_NAME": "Город",
            "LEFT_MARGIN": "3216",
            "RIGHT_MARGIN": "3217",
            "CITY_ID": "1573",
            "REGION_ID": "45",
            "COUNTRY_ID": "1",
            "LATITUDE": "56.090992",
            "LONGITUDE": "49.877183",
            "PARENT_ID": "1572",
            "PARENT_NAME": "Арский район",
            "NAME": "Арск",
            "TYPE": "CITY"
        },
        {
            "ID": "3018",
            "CODE": "0001059774",
            "TYPE_NAME": "Город",
            "LEFT_MARGIN": "179",
            "RIGHT_MARGIN": "180",
            "CITY_ID": "3018",
            "REGION_ID": "81",
            "COUNTRY_ID": "1",
            "LATITUDE": "43.357038",
            "LONGITUDE": "132.185363",
            "PARENT_ID": "81",
            "PARENT_NAME": "Приморский край",
            "NAME": "Артем",
            "TYPE": "CITY"
        },
        {
            "ID": "2509",
            "CODE": "0000911675",
            "TYPE_NAME": "Город",
            "LEFT_MARGIN": "1360",
            "RIGHT_MARGIN": "1361",
            "CITY_ID": "2509",
            "REGION_ID": "65",
            "COUNTRY_ID": "1",
            "LATITUDE": "0.000000",
            "LONGITUDE": "0.000000",
            "PARENT_ID": "2508",
            "PARENT_NAME": "Курагинский район",
            "NAME": "Артемовск",
            "TYPE": "CITY"
        },
        {
            "ID": "2239",
            "CODE": "0000824619",
            "TYPE_NAME": "Город",
            "LEFT_MARGIN": "1910",
            "RIGHT_MARGIN": "1911",
            "CITY_ID": "2239",
            "REGION_ID": "59",
            "COUNTRY_ID": "1",
            "LATITUDE": "0.000000",
            "LONGITUDE": "0.000000",
            "PARENT_ID": "2238",
            "PARENT_NAME": "Артемовский район",
            "NAME": "Артемовский",
            "TYPE": "CITY"
        },
        {
            "ID": "970",
            "CODE": "0000110423",
            "TYPE_NAME": "Город",
            "LEFT_MARGIN": "4423",
            "RIGHT_MARGIN": "4424",
            "CITY_ID": "970",
            "REGION_ID": "24",
            "COUNTRY_ID": "1",
            "LATITUDE": "64.543022",
            "LONGITUDE": "40.537121",
            "PARENT_ID": "24",
            "PARENT_NAME": "Архангельская область",
            "NAME": "Архангельск",
            "TYPE": "CITY"
        },
        {
            "ID": "2206",
            "CODE": "0000815009",
            "TYPE_NAME": "Город",
            "LEFT_MARGIN": "1761",
            "RIGHT_MARGIN": "1762",
            "CITY_ID": "2206",
            "REGION_ID": "59",
            "COUNTRY_ID": "1",
            "LATITUDE": "57.005275",
            "LONGITUDE": "61.458077",
            "PARENT_ID": "59",
            "PARENT_NAME": "Свердловская область",
            "NAME": "Асбест",
            "TYPE": "CITY"
        },
        {
            "ID": "2703",
            "CODE": "0000980645",
            "TYPE_NAME": "Город",
            "LEFT_MARGIN": "900",
            "RIGHT_MARGIN": "901",
            "CITY_ID": "2703",
            "REGION_ID": "70",
            "COUNTRY_ID": "1",
            "LATITUDE": "56.999187",
            "LONGITUDE": "86.141670",
            "PARENT_ID": "2702",
            "PARENT_NAME": "Асиновский район",
            "NAME": "Асино",
            "TYPE": "CITY"
        },
        {
            "ID": "1315",
            "CODE": "0000477579",
            "TYPE_NAME": "Город",
            "LEFT_MARGIN": "3745",
            "RIGHT_MARGIN": "3748",
            "CITY_ID": "1315",
            "REGION_ID": "34",
            "COUNTRY_ID": "1",
            "LATITUDE": "46.349831",
            "LONGITUDE": "48.032620",
            "PARENT_ID": "34",
            "PARENT_NAME": "Астраханская область",
            "NAME": "Астрахань",
            "TYPE": "CITY"
        },
        {
            "ID": "2121",
            "CODE": "0000779275",
            "TYPE_NAME": "Город",
            "LEFT_MARGIN": "1977",
            "RIGHT_MARGIN": "1978",
            "CITY_ID": "2121",
            "REGION_ID": "57",
            "COUNTRY_ID": "1",
            "LATITUDE": "51.882442",
            "LONGITUDE": "45.012573",
            "PARENT_ID": "57",
            "PARENT_NAME": "Саратовская область",
            "NAME": "Аткарск",
            "TYPE": "CITY"
        },
        {
            "ID": "1319",
            "CODE": "0000480507",
            "TYPE_NAME": "Город",
            "LEFT_MARGIN": "3740",
            "RIGHT_MARGIN": "3741",
            "CITY_ID": "1319",
            "REGION_ID": "34",
            "COUNTRY_ID": "1",
            "LATITUDE": "48.287762",
            "LONGITUDE": "46.174488",
            "PARENT_ID": "1318",
            "PARENT_NAME": "Ахтубинский район",
            "NAME": "Ахтубинск",
            "TYPE": "CITY"
        },
        {
            "ID": "1320",
            "CODE": "0000481044",
            "TYPE_NAME": "Город",
            "LEFT_MARGIN": "3742",
            "RIGHT_MARGIN": "3743",
            "CITY_ID": "1320",
            "REGION_ID": "34",
            "COUNTRY_ID": "1",
            "LATITUDE": "48.296550",
            "LONGITUDE": "46.190722",
            "PARENT_ID": "1318",
            "PARENT_NAME": "Ахтубинский район",
            "NAME": "Ахтубинск-7",
            "TYPE": "CITY"
        },
        {
            "ID": "2476",
            "CODE": "0000898917",
            "TYPE_NAME": "Город",
            "LEFT_MARGIN": "1251",
            "RIGHT_MARGIN": "1252",
            "CITY_ID": "2476",
            "REGION_ID": "65",
            "COUNTRY_ID": "1",
            "LATITUDE": "56.269485",
            "LONGITUDE": "90.495396",
            "PARENT_ID": "65",
            "PARENT_NAME": "Красноярский край",
            "NAME": "Ачинск",
            "TYPE": "CITY"
        },
        {
            "ID": "2374",
            "CODE": "0000862262",
            "TYPE_NAME": "Город",
            "LEFT_MARGIN": "1600",
            "RIGHT_MARGIN": "1601",
            "CITY_ID": "2374",
            "REGION_ID": "63",
            "COUNTRY_ID": "1",
            "LATITUDE": "54.990890",
            "LONGITUDE": "57.278053",
            "PARENT_ID": "2371",
            "PARENT_NAME": "Ашинский район",
            "NAME": "Аша",
            "TYPE": "CITY"
        },
        {
            "ID": "932",
            "CODE": "0000339210",
            "TYPE_NAME": "Город",
            "LEFT_MARGIN": "4560",
            "RIGHT_MARGIN": "4561",
            "CITY_ID": "932",
            "REGION_ID": "23",
            "COUNTRY_ID": "1",
            "LATITUDE": "59.396994",
            "LONGITUDE": "35.940425",
            "PARENT_ID": "931",
            "PARENT_NAME": "Бабаевский район",
            "NAME": "Бабаево",
            "TYPE": "CITY"
        },
        {
            "ID": "2809",
            "CODE": "0001011767",
            "TYPE_NAME": "Город",
            "LEFT_MARGIN": "688",
            "RIGHT_MARGIN": "689",
            "CITY_ID": "2809",
            "REGION_ID": "72",
            "COUNTRY_ID": "1",
            "LATITUDE": "51.716175",
            "LONGITUDE": "105.863533",
            "PARENT_ID": "2808",
            "PARENT_NAME": "Кабанский район",
            "NAME": "Бабушкин",
            "TYPE": "CITY"
        },
        {
            "ID": "1577",
            "CODE": "0000559240",
            "TYPE_NAME": "Город",
            "LEFT_MARGIN": "3212",
            "RIGHT_MARGIN": "3213",
            "CITY_ID": "1577",
            "REGION_ID": "45",
            "COUNTRY_ID": "1",
            "LATITUDE": "54.403087",
            "LONGITUDE": "53.235702",
            "PARENT_ID": "1576",
            "PARENT_NAME": "Бавлинский район",
            "NAME": "Бавлы",
            "TYPE": "CITY"
        },
        {
            "ID": "1031",
            "CODE": "0000356474",
            "TYPE_NAME": "Город",
            "LEFT_MARGIN": "4358",
            "RIGHT_MARGIN": "4359",
            "CITY_ID": "1031",
            "REGION_ID": "26",
            "COUNTRY_ID": "1",
            "LATITUDE": "54.386819",
            "LONGITUDE": "20.640512",
            "PARENT_ID": "1030",
            "PARENT_NAME": "Багратионовский район",
            "NAME": "Багратионовск",
            "TYPE": "CITY"
        },
        {
            "ID": "2452",
            "CODE": "0000889089",
            "TYPE_NAME": "Город",
            "LEFT_MARGIN": "1466",
            "RIGHT_MARGIN": "1467",
            "CITY_ID": "2452",
            "REGION_ID": "64",
            "COUNTRY_ID": "1",
            "LATITUDE": "51.522598",
            "LONGITUDE": "104.149071",
            "PARENT_ID": "2450",
            "PARENT_NAME": "Слюдянский район",
            "NAME": "Байкальск",
            "TYPE": "CITY"
        },
        {
            "ID": "2031",
            "CODE": "0000736728",
            "TYPE_NAME": "Город",
            "LEFT_MARGIN": "2294",
            "RIGHT_MARGIN": "2295",
            "CITY_ID": "2031",
            "REGION_ID": "55",
            "COUNTRY_ID": "1",
            "LATITUDE": "52.597919",
            "LONGITUDE": "58.307560",
            "PARENT_ID": "2030",
            "PARENT_NAME": "Баймакский район",
            "NAME": "Баймак",
            "TYPE": "CITY"
        },
        {
            "ID": "2383",
            "CODE": "0000864142",
            "TYPE_NAME": "Город",
            "LEFT_MARGIN": "1576",
            "RIGHT_MARGIN": "1577",
            "CITY_ID": "2383",
            "REGION_ID": "63",
            "COUNTRY_ID": "1",
            "LATITUDE": "54.936657",
            "LONGITUDE": "58.810249",
            "PARENT_ID": "2382",
            "PARENT_NAME": "Саткинский район",
            "NAME": "Бакал",
            "TYPE": "CITY"
        },
        {
            "ID": "1417",
            "CODE": "0000505251",
            "TYPE_NAME": "Город",
            "LEFT_MARGIN": "3513",
            "RIGHT_MARGIN": "3514",
            "CITY_ID": "1417",
            "REGION_ID": "38",
            "COUNTRY_ID": "1",
            "LATITUDE": "43.682063",
            "LONGITUDE": "43.534432",
            "PARENT_ID": "38",
            "PARENT_NAME": "Кабардино-Балкарская Республика",
            "NAME": "Баксан",
            "TYPE": "CITY"
        },
        {
            "ID": "286",
            "CODE": "0000149234",
            "TYPE_NAME": "Город",
            "LEFT_MARGIN": "5888",
            "RIGHT_MARGIN": "5889",
            "CITY_ID": "286",
            "REGION_ID": "5",
            "COUNTRY_ID": "1",
            "LATITUDE": "55.178358",
            "LONGITUDE": "36.657556",
            "PARENT_ID": "285",
            "PARENT_NAME": "Боровский район",
            "NAME": "Балабаново",
            "TYPE": "CITY"
        },
        {
            "ID": "2119",
            "CODE": "0000779024",
            "TYPE_NAME": "Город",
            "LEFT_MARGIN": "1973",
            "RIGHT_MARGIN": "1974",
            "CITY_ID": "2119",
            "REGION_ID": "57",
            "COUNTRY_ID": "1",
            "LATITUDE": "52.018120",
            "LONGITUDE": "47.819141",
            "PARENT_ID": "57",
            "PARENT_NAME": "Саратовская область",
            "NAME": "Балаково",
            "TYPE": "CITY"
        },
        {
            "ID": "1711",
            "CODE": "0000607152",
            "TYPE_NAME": "Город",
            "LEFT_MARGIN": "2942",
            "RIGHT_MARGIN": "2943",
            "CITY_ID": "1711",
            "REGION_ID": "48",
            "COUNTRY_ID": "1",
            "LATITUDE": "56.487051",
            "LONGITUDE": "43.603955",
            "PARENT_ID": "1710",
            "PARENT_NAME": "Балахнинский район",
            "NAME": "Балахна",
            "TYPE": "CITY"
        },
        {
            "ID": "113",
            "CODE": "0000033889",
            "TYPE_NAME": "Город",
            "LEFT_MARGIN": "6097",
            "RIGHT_MARGIN": "6098",
            "CITY_ID": "113",
            "REGION_ID": "2",
            "COUNTRY_ID": "1",
            "LATITUDE": "55.803623",
            "LONGITUDE": "37.964649",
            "PARENT_ID": "2",
            "PARENT_NAME": "Московская область",
            "NAME": "Балашиха",
            "TYPE": "CITY"
        },
        {
            "ID": "2125",
            "CODE": "0000779907",
            "TYPE_NAME": "Город",
            "LEFT_MARGIN": "1985",
            "RIGHT_MARGIN": "1986",
            "CITY_ID": "2125",
            "REGION_ID": "57",
            "COUNTRY_ID": "1",
            "LATITUDE": "51.537084",
            "LONGITUDE": "43.171762",
            "PARENT_ID": "57",
            "PARENT_NAME": "Саратовская область",
            "NAME": "Балашов",
            "TYPE": "CITY"
        },
        {
            "ID": "2539",
            "CODE": "0000921602",
            "TYPE_NAME": "Город",
            "LEFT_MARGIN": "1232",
            "RIGHT_MARGIN": "1233",
            "CITY_ID": "2539",
            "REGION_ID": "66",
            "COUNTRY_ID": "1",
            "LATITUDE": "51.578789",
            "LONGITUDE": "116.646042",
            "PARENT_ID": "2538",
            "PARENT_NAME": "Балейский район",
            "NAME": "Балей",
            "TYPE": "CITY"
        },
        {
            "ID": "1056",
            "CODE": "0000361692",
            "TYPE_NAME": "Город",
            "LEFT_MARGIN": "4314",
            "RIGHT_MARGIN": "4315",
            "CITY_ID": "1056",
            "REGION_ID": "26",
            "COUNTRY_ID": "1",
            "LATITUDE": "54.643721",
            "LONGITUDE": "19.894158",
            "PARENT_ID": "1054",
            "PARENT_NAME": "Балтийский район",
            "NAME": "Балтийск",
            "TYPE": "CITY"
        },
        {
            "ID": "2617",
            "CODE": "0000951464",
            "TYPE_NAME": "Город",
            "LEFT_MARGIN": "987",
            "RIGHT_MARGIN": "988",
            "CITY_ID": "2617",
            "REGION_ID": "68",
            "COUNTRY_ID": "1",
            "LATITUDE": "55.356761",
            "LONGITUDE": "78.350348",
            "PARENT_ID": "68",
            "PARENT_NAME": "Новосибирская область",
            "NAME": "Барабинск",
            "TYPE": "CITY"
        },
        {
            "ID": "2720",
            "CODE": "0000986698",
            "TYPE_NAME": "Город",
            "LEFT_MARGIN": "715",
            "RIGHT_MARGIN": "716",
            "CITY_ID": "2720",
            "REGION_ID": "71",
            "COUNTRY_ID": "1",
            "LATITUDE": "53.347402",
            "LONGITUDE": "83.778450",
            "PARENT_ID": "71",
            "PARENT_NAME": "Алтайский край",
            "NAME": "Барнаул",
            "TYPE": "CITY"
        },
        {
            "ID": "2096",
            "CODE": "0000768127",
            "TYPE_NAME": "Город",
            "LEFT_MARGIN": "2101",
            "RIGHT_MARGIN": "2102",
            "CITY_ID": "2096",
            "REGION_ID": "56",
            "COUNTRY_ID": "1",
            "LATITUDE": "53.654076",
            "LONGITUDE": "47.101374",
            "PARENT_ID": "56",
            "PARENT_NAME": "Ульяновская область",
            "NAME": "Барыш",
            "TYPE": "CITY"
        },
        {
            "ID": "1251",
            "CODE": "0000448252",
            "TYPE_NAME": "Город",
            "LEFT_MARGIN": "3755",
            "RIGHT_MARGIN": "3756",
            "CITY_ID": "1251",
            "REGION_ID": "33",
            "COUNTRY_ID": "1",
            "LATITUDE": "47.138527",
            "LONGITUDE": "39.742348",
            "PARENT_ID": "33",
            "PARENT_NAME": "Ростовская область",
            "NAME": "Батайск",
            "TYPE": "CITY"
        },
        {
            "ID": "3111",
            "CODE": "0001082428",
            "TYPE_NAME": "Город",
            "LEFT_MARGIN": "64",
            "RIGHT_MARGIN": "65",
            "CITY_ID": "3111",
            "REGION_ID": "85",
            "COUNTRY_ID": "1",
            "LATITUDE": "44.752296",
            "LONGITUDE": "33.853478",
            "PARENT_ID": "3110",
            "PARENT_NAME": "Бахчисарайский район",
            "NAME": "Бахчисарай",
            "TYPE": "CITY"
        },
        {
            "ID": "579",
            "CODE": "0000234738",
            "TYPE_NAME": "Город",
            "LEFT_MARGIN": "5298",
            "RIGHT_MARGIN": "5299",
            "CITY_ID": "579",
            "REGION_ID": "13",
            "COUNTRY_ID": "1",
            "LATITUDE": "57.781357",
            "LONGITUDE": "36.692535",
            "PARENT_ID": "578",
            "PARENT_NAME": "Бежецкий район",
            "NAME": "Бежецк",
            "TYPE": "CITY"
        },
        {
            "ID": "1265",
            "CODE": "0000456678",
            "TYPE_NAME": "Город",
            "LEFT_MARGIN": "3876",
            "RIGHT_MARGIN": "3877",
            "CITY_ID": "1265",
            "REGION_ID": "33",
            "COUNTRY_ID": "1",
            "LATITUDE": "48.175178",
            "LONGITUDE": "40.790212",
            "PARENT_ID": "1264",
            "PARENT_NAME": "Белокалитвинский район",
            "NAME": "Белая Калитва",
            "TYPE": "CITY"
        },
        {
            "ID": "1648",
            "CODE": "0000586187",
            "TYPE_NAME": "Город",
            "LEFT_MARGIN": "3054",
            "RIGHT_MARGIN": "3055",
            "CITY_ID": "1648",
            "REGION_ID": "47",
            "COUNTRY_ID": "1",
            "LATITUDE": "58.840682",
            "LONGITUDE": "50.841074",
            "PARENT_ID": "1647",
            "PARENT_NAME": "Белохолуницкий район",
            "NAME": "Белая Холуница",
            "TYPE": "CITY"
        },
        {
            "ID": "211",
            "CODE": "0000133095",
            "TYPE_NAME": "Город",
            "LEFT_MARGIN": "5977",
            "RIGHT_MARGIN": "5978",
            "CITY_ID": "211",
            "REGION_ID": "3",
            "COUNTRY_ID": "1",
            "LATITUDE": "50.595560",
            "LONGITUDE": "36.587339",
            "PARENT_ID": "3",
            "PARENT_NAME": "Белгородская область",
            "NAME": "Белгород",
            "TYPE": "CITY"
        },
        {
            "ID": "2034",
            "CODE": "0000738016",
            "TYPE_NAME": "Город",
            "LEFT_MARGIN": "2290",
            "RIGHT_MARGIN": "2291",
            "CITY_ID": "2034",
            "REGION_ID": "55",
            "COUNTRY_ID": "1",
            "LATITUDE": "54.106495",
            "LONGITUDE": "54.107811",
            "PARENT_ID": "2033",
            "PARENT_NAME": "Белебеевский район",
            "NAME": "Белебей",
            "TYPE": "CITY"
        },
        {
            "ID": "634",
            "CODE": "0000253162",
            "TYPE_NAME": "Город",
            "LEFT_MARGIN": "5178",
            "RIGHT_MARGIN": "5179",
            "CITY_ID": "634",
            "REGION_ID": "14",
            "COUNTRY_ID": "1",
            "LATITUDE": "50.696529",
            "LONGITUDE": "25.973682",
            "PARENT_ID": "633",
            "PARENT_NAME": "Белевский район",
            "NAME": "Белев",
            "TYPE": "CITY"
        },
        {
            "ID": "1939",
            "CODE": "0000700250",
            "TYPE_NAME": "Город",
            "LEFT_MARGIN": "2462",
            "RIGHT_MARGIN": "2463",
            "CITY_ID": "1939",
            "REGION_ID": "53",
            "COUNTRY_ID": "1",
            "LATITUDE": "52.966934",
            "LONGITUDE": "43.413063",
            "PARENT_ID": "1938",
            "PARENT_NAME": "Белинский район",
            "NAME": "Белинский",
            "TYPE": "CITY"
        },
        {
            "ID": "2590",
            "CODE": "0000938741",
            "TYPE_NAME": "Город",
            "LEFT_MARGIN": "1101",
            "RIGHT_MARGIN": "1102",
            "CITY_ID": "2590",
            "REGION_ID": "67",
            "COUNTRY_ID": "1",
            "LATITUDE": "54.419323",
            "LONGITUDE": "86.303429",
            "PARENT_ID": "67",
            "PARENT_NAME": "Кемеровская область",
            "NAME": "Белово",
            "TYPE": "CITY"
        },
        {
            "ID": "3114",
            "CODE": "0001083955",
            "TYPE_NAME": "Город",
            "LEFT_MARGIN": "60",
            "RIGHT_MARGIN": "61",
            "CITY_ID": "3114",
            "REGION_ID": "85",
            "COUNTRY_ID": "1",
            "LATITUDE": "50.921326",
            "LONGITUDE": "128.472870",
            "PARENT_ID": "3113",
            "PARENT_NAME": "Белогорский район",
            "NAME": "Белогорск",
            "TYPE": "CITY"
        },
        {
            "ID": "2921",
            "CODE": "0001039560",
            "TYPE_NAME": "Город",
            "LEFT_MARGIN": "401",
            "RIGHT_MARGIN": "402",
            "CITY_ID": "2921",
            "REGION_ID": "77",
            "COUNTRY_ID": "1",
            "LATITUDE": "50.921326",
            "LONGITUDE": "128.472870",
            "PARENT_ID": "77",
            "PARENT_NAME": "Амурская область",
            "NAME": "Белогорск",
            "TYPE": "CITY"
        },
        {
            "ID": "930",
            "CODE": "0000338943",
            "TYPE_NAME": "Город",
            "LEFT_MARGIN": "4564",
            "RIGHT_MARGIN": "4565",
            "CITY_ID": "930",
            "REGION_ID": "23",
            "COUNTRY_ID": "1",
            "LATITUDE": "60.031990",
            "LONGITUDE": "37.784219",
            "PARENT_ID": "929",
            "PARENT_NAME": "Белозерский район",
            "NAME": "Белозерск",
            "TYPE": "CITY"
        },
        {
            "ID": "2723",
            "CODE": "0000989266",
            "TYPE_NAME": "Город",
            "LEFT_MARGIN": "721",
            "RIGHT_MARGIN": "722",
            "CITY_ID": "2723",
            "REGION_ID": "71",
            "COUNTRY_ID": "1",
            "LATITUDE": "51.999486",
            "LONGITUDE": "84.986086",
            "PARENT_ID": "71",
            "PARENT_NAME": "Алтайский край",
            "NAME": "Белокуриха",
            "TYPE": "CITY"
        },
        {
            "ID": "910",
            "CODE": "0000332809",
            "TYPE_NAME": "Город",
            "LEFT_MARGIN": "4610",
            "RIGHT_MARGIN": "4611",
            "CITY_ID": "910",
            "REGION_ID": "22",
            "COUNTRY_ID": "1",
            "LATITUDE": "64.521668",
            "LONGITUDE": "34.762584",
            "PARENT_ID": "909",
            "PARENT_NAME": "Беломорский район",
            "NAME": "Беломорск",
            "TYPE": "CITY"
        },
        {
            "ID": "2037",
            "CODE": "0000739737",
            "TYPE_NAME": "Город",
            "LEFT_MARGIN": "2286",
            "RIGHT_MARGIN": "2287",
            "CITY_ID": "2037",
            "REGION_ID": "55",
            "COUNTRY_ID": "1",
            "LATITUDE": "53.968071",
            "LONGITUDE": "58.409955",
            "PARENT_ID": "2036",
            "PARENT_NAME": "Белорецкий район",
            "NAME": "Белорецк",
            "TYPE": "CITY"
        },
        {
            "ID": "1148",
            "CODE": "0000400363",
            "TYPE_NAME": "Город",
            "LEFT_MARGIN": "4102",
            "RIGHT_MARGIN": "4103",
            "CITY_ID": "1148",
            "REGION_ID": "31",
            "COUNTRY_ID": "1",
            "LATITUDE": "44.761415",
            "LONGITUDE": "39.871294",
            "PARENT_ID": "1147",
            "PARENT_NAME": "Белореченский район",
            "NAME": "Белореченск",
            "TYPE": "CITY"
        },
        {
            "ID": "298",
            "CODE": "0000151473",
            "TYPE_NAME": "Город",
            "LEFT_MARGIN": "5876",
            "RIGHT_MARGIN": "5877",
            "CITY_ID": "298",
            "REGION_ID": "5",
            "COUNTRY_ID": "1",
            "LATITUDE": "55.089725",
            "LONGITUDE": "36.661340",
            "PARENT_ID": "295",
            "PARENT_NAME": "Жуковский район",
            "NAME": "Белоусово",
            "TYPE": "CITY"
        },
        {
            "ID": "2339",
            "CODE": "0000850851",
            "TYPE_NAME": "Город",
            "LEFT_MARGIN": "1623",
            "RIGHT_MARGIN": "1624",
            "CITY_ID": "2339",
            "REGION_ID": "62",
            "COUNTRY_ID": "1",
            "LATITUDE": "63.715635",
            "LONGITUDE": "66.666769",
            "PARENT_ID": "62",
            "PARENT_NAME": "Ханты-Мансийский автономный округ",
            "NAME": "Белоярский",
            "TYPE": "CITY"
        },
        {
            "ID": "581",
            "CODE": "0000234891",
            "TYPE_NAME": "Город",
            "LEFT_MARGIN": "5294",
            "RIGHT_MARGIN": "5295",
            "CITY_ID": "581",
            "REGION_ID": "13",
            "COUNTRY_ID": "1",
            "LATITUDE": "55.833073",
            "LONGITUDE": "32.939487",
            "PARENT_ID": "580",
            "PARENT_NAME": "Бельский район",
            "NAME": "Белый",
            "TYPE": "CITY"
        },
        {
            "ID": "2618",
            "CODE": "0000951637",
            "TYPE_NAME": "Город",
            "LEFT_MARGIN": "989",
            "RIGHT_MARGIN": "990",
            "CITY_ID": "2618",
            "REGION_ID": "68",
            "COUNTRY_ID": "1",
            "LATITUDE": "54.757950",
            "LONGITUDE": "83.106810",
            "PARENT_ID": "68",
            "PARENT_NAME": "Новосибирская область",
            "NAME": "Бердск",
            "TYPE": "CITY"
        },
        {
            "ID": "1871",
            "CODE": "0000672223",
            "TYPE_NAME": "Город",
            "LEFT_MARGIN": "2479",
            "RIGHT_MARGIN": "2480",
            "CITY_ID": "1871",
            "REGION_ID": "52",
            "COUNTRY_ID": "1",
            "LATITUDE": "59.417285",
            "LONGITUDE": "56.832862",
            "PARENT_ID": "52",
            "PARENT_NAME": "Пермский край",
            "NAME": "Березники",
            "TYPE": "CITY"
        },
        {
            "ID": "2578",
            "CODE": "0000931056",
            "TYPE_NAME": "Город",
            "LEFT_MARGIN": "1077",
            "RIGHT_MARGIN": "1078",
            "CITY_ID": "2578",
            "REGION_ID": "67",
            "COUNTRY_ID": "1",
            "LATITUDE": "55.669695",
            "LONGITUDE": "86.275154",
            "PARENT_ID": "67",
            "PARENT_NAME": "Кемеровская область",
            "NAME": "Березовский",
            "TYPE": "CITY"
        },
        {
            "ID": "2205",
            "CODE": "0000814374",
            "TYPE_NAME": "Город",
            "LEFT_MARGIN": "1759",
            "RIGHT_MARGIN": "1760",
            "CITY_ID": "2205",
            "REGION_ID": "59",
            "COUNTRY_ID": "1",
            "LATITUDE": "55.669695",
            "LONGITUDE": "86.275154",
            "PARENT_ID": "59",
            "PARENT_NAME": "Свердловская область",
            "NAME": "Березовский",
            "TYPE": "CITY"
        },
        {
            "ID": "1442",
            "CODE": "0000509626",
            "TYPE_NAME": "Город",
            "LEFT_MARGIN": "3484",
            "RIGHT_MARGIN": "3485",
            "CITY_ID": "1442",
            "REGION_ID": "39",
            "COUNTRY_ID": "1",
            "LATITUDE": "43.187557",
            "LONGITUDE": "44.537569",
            "PARENT_ID": "1441",
            "PARENT_NAME": "Правобережный район",
            "NAME": "Беслан",
            "TYPE": "CITY"
        },
        {
            "ID": "2722",
            "CODE": "0000988597",
            "TYPE_NAME": "Город",
            "LEFT_MARGIN": "719",
            "RIGHT_MARGIN": "720",
            "CITY_ID": "2722",
            "REGION_ID": "71",
            "COUNTRY_ID": "1",
            "LATITUDE": "52.539491",
            "LONGITUDE": "85.214867",
            "PARENT_ID": "71",
            "PARENT_NAME": "Алтайский край",
            "NAME": "Бийск",
            "TYPE": "CITY"
        },
        {
            "ID": "2897",
            "CODE": "0001031473",
            "TYPE_NAME": "Город",
            "LEFT_MARGIN": "461",
            "RIGHT_MARGIN": "462",
            "CITY_ID": "2897",
            "REGION_ID": "76",
            "COUNTRY_ID": "1",
            "LATITUDE": "46.819363",
            "LONGITUDE": "134.254822",
            "PARENT_ID": "76",
            "PARENT_NAME": "Хабаровский край",
            "NAME": "Бикин",
            "TYPE": "CITY"
        },
        {
            "ID": "3094",
            "CODE": "0001076211",
            "TYPE_NAME": "Город",
            "LEFT_MARGIN": "84",
            "RIGHT_MARGIN": "85",
            "CITY_ID": "3094",
            "REGION_ID": "84",
            "COUNTRY_ID": "1",
            "LATITUDE": "68.055031",
            "LONGITUDE": "166.444852",
            "PARENT_ID": "3093",
            "PARENT_NAME": "Билибинский район",
            "NAME": "Билибино",
            "TYPE": "CITY"
        },
        {
            "ID": "3083",
            "CODE": "0001074211",
            "TYPE_NAME": "Город",
            "LEFT_MARGIN": "93",
            "RIGHT_MARGIN": "94",
            "CITY_ID": "3083",
            "REGION_ID": "83",
            "COUNTRY_ID": "1",
            "LATITUDE": "48.788167",
            "LONGITUDE": "132.928208",
            "PARENT_ID": "83",
            "PARENT_NAME": "Еврейская автономная область",
            "NAME": "Биробиджан",
            "TYPE": "CITY"
        },
        {
            "ID": "2041",
            "CODE": "0000741808",
            "TYPE_NAME": "Город",
            "LEFT_MARGIN": "2282",
            "RIGHT_MARGIN": "2283",
            "CITY_ID": "2041",
            "REGION_ID": "55",
            "COUNTRY_ID": "1",
            "LATITUDE": "55.420677",
            "LONGITUDE": "55.540718",
            "PARENT_ID": "2040",
            "PARENT_NAME": "Бирский район",
            "NAME": "Бирск",
            "TYPE": "CITY"
        },
        {
            "ID": "2455",
            "CODE": "0000889804",
            "TYPE_NAME": "Город",
            "LEFT_MARGIN": "1460",
            "RIGHT_MARGIN": "1461",
            "CITY_ID": "2455",
            "REGION_ID": "64",
            "COUNTRY_ID": "1",
            "LATITUDE": "55.964275",
            "LONGITUDE": "97.824509",
            "PARENT_ID": "2454",
            "PARENT_NAME": "Тайшетский район",
            "NAME": "Бирюсинск",
            "TYPE": "CITY"
        },
        {
            "ID": "230",
            "CODE": "0000139983",
            "TYPE_NAME": "Город",
            "LEFT_MARGIN": "6022",
            "RIGHT_MARGIN": "6023",
            "CITY_ID": "230",
            "REGION_ID": "3",
            "COUNTRY_ID": "1",
            "LATITUDE": "50.649164",
            "LONGITUDE": "38.399928",
            "PARENT_ID": "229",
            "PARENT_NAME": "Красногвардейский район",
            "NAME": "Бирюч",
            "TYPE": "CITY"
        },
        {
            "ID": "2917",
            "CODE": "0001038676",
            "TYPE_NAME": "Город",
            "LEFT_MARGIN": "393",
            "RIGHT_MARGIN": "394",
            "CITY_ID": "2917",
            "REGION_ID": "77",
            "COUNTRY_ID": "1",
            "LATITUDE": "50.290527",
            "LONGITUDE": "127.527161",
            "PARENT_ID": "77",
            "PARENT_NAME": "Амурская область",
            "NAME": "Благовещенск",
            "TYPE": "CITY"
        },
        {
            "ID": "2044",
            "CODE": "0000742727",
            "TYPE_NAME": "Город",
            "LEFT_MARGIN": "2278",
            "RIGHT_MARGIN": "2279",
            "CITY_ID": "2044",
            "REGION_ID": "55",
            "COUNTRY_ID": "1",
            "LATITUDE": "50.290527",
            "LONGITUDE": "127.527161",
            "PARENT_ID": "2043",
            "PARENT_NAME": "Благовещенский район",
            "NAME": "Благовещенск",
            "TYPE": "CITY"
        },
        {
            "ID": "1456",
            "CODE": "0000514565",
            "TYPE_NAME": "Город",
            "LEFT_MARGIN": "3470",
            "RIGHT_MARGIN": "3471",
            "CITY_ID": "1456",
            "REGION_ID": "40",
            "COUNTRY_ID": "1",
            "LATITUDE": "45.100857",
            "LONGITUDE": "43.420868",
            "PARENT_ID": "1455",
            "PARENT_NAME": "Благодарненский район",
            "NAME": "Благодарный",
            "TYPE": "CITY"
        },
        {
            "ID": "744",
            "CODE": "0000296461",
            "TYPE_NAME": "Город",
            "LEFT_MARGIN": "4950",
            "RIGHT_MARGIN": "4951",
            "CITY_ID": "744",
            "REGION_ID": "17",
            "COUNTRY_ID": "1",
            "LATITUDE": "51.096800",
            "LONGITUDE": "40.030780",
            "PARENT_ID": "743",
            "PARENT_NAME": "Бобровский район",
            "NAME": "Бобров",
            "TYPE": "CITY"
        },
        {
            "ID": "2245",
            "CODE": "0000826982",
            "TYPE_NAME": "Город",
            "LEFT_MARGIN": "1906",
            "RIGHT_MARGIN": "1907",
            "CITY_ID": "2245",
            "REGION_ID": "59",
            "COUNTRY_ID": "1",
            "LATITUDE": "56.768341",
            "LONGITUDE": "62.052077",
            "PARENT_ID": "2244",
            "PARENT_NAME": "Богдановичский район",
            "NAME": "Богданович",
            "TYPE": "CITY"
        },
        {
            "ID": "636",
            "CODE": "0000253499",
            "TYPE_NAME": "Город",
            "LEFT_MARGIN": "5174",
            "RIGHT_MARGIN": "5175",
            "CITY_ID": "636",
            "REGION_ID": "14",
            "COUNTRY_ID": "1",
            "LATITUDE": "53.773571",
            "LONGITUDE": "38.126965",
            "PARENT_ID": "635",
            "PARENT_NAME": "Богородицкий район",
            "NAME": "Богородицк",
            "TYPE": "CITY"
        },
        {
            "ID": "1713",
            "CODE": "0000608554",
            "TYPE_NAME": "Город",
            "LEFT_MARGIN": "2938",
            "RIGHT_MARGIN": "2939",
            "CITY_ID": "1713",
            "REGION_ID": "48",
            "COUNTRY_ID": "1",
            "LATITUDE": "55.855351",
            "LONGITUDE": "38.441190",
            "PARENT_ID": "1712",
            "PARENT_NAME": "Богородский район",
            "NAME": "Богородск",
            "TYPE": "CITY"
        },
        {
            "ID": "2477",
            "CODE": "0000899308",
            "TYPE_NAME": "Город",
            "LEFT_MARGIN": "1253",
            "RIGHT_MARGIN": "1254",
            "CITY_ID": "2477",
            "REGION_ID": "65",
            "COUNTRY_ID": "1",
            "LATITUDE": "56.211464",
            "LONGITUDE": "89.531639",
            "PARENT_ID": "65",
            "PARENT_NAME": "Красноярский край",
            "NAME": "Боготол",
            "TYPE": "CITY"
        },
        {
            "ID": "748",
            "CODE": "0000297102",
            "TYPE_NAME": "Город",
            "LEFT_MARGIN": "4946",
            "RIGHT_MARGIN": "4947",
            "CITY_ID": "748",
            "REGION_ID": "17",
            "COUNTRY_ID": "1",
            "LATITUDE": "49.932450",
            "LONGITUDE": "40.554475",
            "PARENT_ID": "747",
            "PARENT_NAME": "Богучарский район",
            "NAME": "Богучар",
            "TYPE": "CITY"
        },
        {
            "ID": "2418",
            "CODE": "0000877739",
            "TYPE_NAME": "Город",
            "LEFT_MARGIN": "1383",
            "RIGHT_MARGIN": "1384",
            "CITY_ID": "2418",
            "REGION_ID": "64",
            "COUNTRY_ID": "1",
            "LATITUDE": "57.849953",
            "LONGITUDE": "114.203997",
            "PARENT_ID": "64",
            "PARENT_NAME": "Иркутская область",
            "NAME": "Бодайбо",
            "TYPE": "CITY"
        },
        {
            "ID": "831",
            "CODE": "0000080243",
            "TYPE_NAME": "Город",
            "LEFT_MARGIN": "4756",
            "RIGHT_MARGIN": "4757",
            "CITY_ID": "831",
            "REGION_ID": "20",
            "COUNTRY_ID": "1",
            "LATITUDE": "59.472902",
            "LONGITUDE": "33.848995",
            "PARENT_ID": "830",
            "PARENT_NAME": "Бокситогорский район",
            "NAME": "Бокситогорск",
            "TYPE": "CITY"
        },
        {
            "ID": "1613",
            "CODE": "0000572910",
            "TYPE_NAME": "Город",
            "LEFT_MARGIN": "3160",
            "RIGHT_MARGIN": "3161",
            "CITY_ID": "1613",
            "REGION_ID": "45",
            "COUNTRY_ID": "1",
            "LATITUDE": "54.974744",
            "LONGITUDE": "49.030208",
            "PARENT_ID": "1612",
            "PARENT_NAME": "Спасский район",
            "NAME": "Болгар",
            "TYPE": "CITY"
        },
        {
            "ID": "583",
            "CODE": "0000235502",
            "TYPE_NAME": "Город",
            "LEFT_MARGIN": "5290",
            "RIGHT_MARGIN": "5291",
            "CITY_ID": "583",
            "REGION_ID": "13",
            "COUNTRY_ID": "1",
            "LATITUDE": "57.885204",
            "LONGITUDE": "34.049603",
            "PARENT_ID": "582",
            "PARENT_NAME": "Бологовский район",
            "NAME": "Бологое",
            "TYPE": "CITY"
        },
        {
            "ID": "2625",
            "CODE": "0000954485",
            "TYPE_NAME": "Город",
            "LEFT_MARGIN": "1070",
            "RIGHT_MARGIN": "1071",
            "CITY_ID": "2625",
            "REGION_ID": "68",
            "COUNTRY_ID": "1",
            "LATITUDE": "55.671571",
            "LONGITUDE": "84.388557",
            "PARENT_ID": "2624",
            "PARENT_NAME": "Болотнинский район",
            "NAME": "Болотное",
            "TYPE": "CITY"
        },
        {
            "ID": "646",
            "CODE": "0000256626",
            "TYPE_NAME": "Город",
            "LEFT_MARGIN": "5160",
            "RIGHT_MARGIN": "5161",
            "CITY_ID": "646",
            "REGION_ID": "14",
            "COUNTRY_ID": "1",
            "LATITUDE": "54.085094",
            "LONGITUDE": "37.829109",
            "PARENT_ID": "644",
            "PARENT_NAME": "Киреевский район",
            "NAME": "Болохово",
            "TYPE": "CITY"
        },
        {
            "ID": "435",
            "CODE": "0000189651",
            "TYPE_NAME": "Город",
            "LEFT_MARGIN": "5588",
            "RIGHT_MARGIN": "5589",
            "CITY_ID": "435",
            "REGION_ID": "9",
            "COUNTRY_ID": "1",
            "LATITUDE": "53.448994",
            "LONGITUDE": "36.002232",
            "PARENT_ID": "434",
            "PARENT_NAME": "Болховский район",
            "NAME": "Болхов",
            "TYPE": "CITY"
        },
        {
            "ID": "3025",
            "CODE": "0001062321",
            "TYPE_NAME": "Город",
            "LEFT_MARGIN": "193",
            "RIGHT_MARGIN": "194",
            "CITY_ID": "3025",
            "REGION_ID": "81",
            "COUNTRY_ID": "1",
            "LATITUDE": "43.112119",
            "LONGITUDE": "132.350910",
            "PARENT_ID": "81",
            "PARENT_NAME": "Приморский край",
            "NAME": "Большой Камень",
            "TYPE": "CITY"
        },
        {
            "ID": "1701",
            "CODE": "0000602165",
            "TYPE_NAME": "Город",
            "LEFT_MARGIN": "2805",
            "RIGHT_MARGIN": "2806",
            "CITY_ID": "1701",
            "REGION_ID": "48",
            "COUNTRY_ID": "1",
            "LATITUDE": "56.359829",
            "LONGITUDE": "44.054264",
            "PARENT_ID": "48",
            "PARENT_NAME": "Нижегородская область",
            "NAME": "Бор",
            "TYPE": "CITY"
        },
        {
            "ID": "2545",
            "CODE": "0000922855",
            "TYPE_NAME": "Город",
            "LEFT_MARGIN": "1228",
            "RIGHT_MARGIN": "1229",
            "CITY_ID": "2545",
            "REGION_ID": "66",
            "COUNTRY_ID": "1",
            "LATITUDE": "50.385181",
            "LONGITUDE": "116.533069",
            "PARENT_ID": "2544",
            "PARENT_NAME": "Борзинский район",
            "NAME": "Борзя",
            "TYPE": "CITY"
        },
        {
            "ID": "750",
            "CODE": "0000297194",
            "TYPE_NAME": "Город",
            "LEFT_MARGIN": "4942",
            "RIGHT_MARGIN": "4943",
            "CITY_ID": "750",
            "REGION_ID": "17",
            "COUNTRY_ID": "1",
            "LATITUDE": "51.368015",
            "LONGITUDE": "42.075169",
            "PARENT_ID": "749",
            "PARENT_NAME": "Борисоглебский район",
            "NAME": "Борисоглебск",
            "TYPE": "CITY"
        },
        {
            "ID": "1104",
            "CODE": "0000378331",
            "TYPE_NAME": "Город",
            "LEFT_MARGIN": "4206",
            "RIGHT_MARGIN": "4207",
            "CITY_ID": "1104",
            "REGION_ID": "28",
            "COUNTRY_ID": "1",
            "LATITUDE": "58.389009",
            "LONGITUDE": "33.906828",
            "PARENT_ID": "1103",
            "PARENT_NAME": "Боровичский район",
            "NAME": "Боровичи",
            "TYPE": "CITY"
        },
        {
            "ID": "287",
            "CODE": "0000149338",
            "TYPE_NAME": "Город",
            "LEFT_MARGIN": "5890",
            "RIGHT_MARGIN": "5891",
            "CITY_ID": "287",
            "REGION_ID": "5",
            "COUNTRY_ID": "1",
            "LATITUDE": "55.206719",
            "LONGITUDE": "36.481388",
            "PARENT_ID": "285",
            "PARENT_NAME": "Боровский район",
            "NAME": "Боровск",
            "TYPE": "CITY"
        },
        {
            "ID": "289",
            "CODE": "0000149510",
            "TYPE_NAME": "Город",
            "LEFT_MARGIN": "5894",
            "RIGHT_MARGIN": "5895",
            "CITY_ID": "289",
            "REGION_ID": "5",
            "COUNTRY_ID": "1",
            "LATITUDE": "55.206719",
            "LONGITUDE": "36.481388",
            "PARENT_ID": "285",
            "PARENT_NAME": "Боровский район",
            "NAME": "Боровск-1",
            "TYPE": "CITY"
        },
        {
            "ID": "2472",
            "CODE": "0000897783",
            "TYPE_NAME": "Город",
            "LEFT_MARGIN": "1243",
            "RIGHT_MARGIN": "1244",
            "CITY_ID": "2472",
            "REGION_ID": "65",
            "COUNTRY_ID": "1",
            "LATITUDE": "55.899719",
            "LONGITUDE": "94.893045",
            "PARENT_ID": "65",
            "PARENT_NAME": "Красноярский край",
            "NAME": "Бородино",
            "TYPE": "CITY"
        },
        {
            "ID": "2417",
            "CODE": "0000877165",
            "TYPE_NAME": "Город",
            "LEFT_MARGIN": "1381",
            "RIGHT_MARGIN": "1382",
            "CITY_ID": "2417",
            "REGION_ID": "64",
            "COUNTRY_ID": "1",
            "LATITUDE": "56.151709",
            "LONGITUDE": "101.633491",
            "PARENT_ID": "64",
            "PARENT_NAME": "Иркутская область",
            "NAME": "Братск",
            "TYPE": "CITY"
        },
        {
            "ID": "88",
            "CODE": "0000029945",
            "TYPE_NAME": "Город",
            "LEFT_MARGIN": "6047",
            "RIGHT_MARGIN": "6048",
            "CITY_ID": "88",
            "REGION_ID": "2",
            "COUNTRY_ID": "1",
            "LATITUDE": "55.421994",
            "LONGITUDE": "38.259061",
            "PARENT_ID": "2",
            "PARENT_NAME": "Московская область",
            "NAME": "Бронницы",
            "TYPE": "CITY"
        },
        {
            "ID": "698",
            "CODE": "0000278519",
            "TYPE_NAME": "Город",
            "LEFT_MARGIN": "4955",
            "RIGHT_MARGIN": "4956",
            "CITY_ID": "698",
            "REGION_ID": "16",
            "COUNTRY_ID": "1",
            "LATITUDE": "53.242378",
            "LONGITUDE": "34.366829",
            "PARENT_ID": "16",
            "PARENT_NAME": "Брянская область",
            "NAME": "Брянск",
            "TYPE": "CITY"
        },
        {
            "ID": "1579",
            "CODE": "0000559461",
            "TYPE_NAME": "Город",
            "LEFT_MARGIN": "3208",
            "RIGHT_MARGIN": "3209",
            "CITY_ID": "1579",
            "REGION_ID": "45",
            "COUNTRY_ID": "1",
            "LATITUDE": "54.538415",
            "LONGITUDE": "52.795595",
            "PARENT_ID": "1578",
            "PARENT_NAME": "Бугульминский район",
            "NAME": "Бугульма",
            "TYPE": "CITY"
        },
        {
            "ID": "1973",
            "CODE": "0000712404",
            "TYPE_NAME": "Город",
            "LEFT_MARGIN": "2307",
            "RIGHT_MARGIN": "2308",
            "CITY_ID": "1973",
            "REGION_ID": "54",
            "COUNTRY_ID": "1",
            "LATITUDE": "53.624717",
            "LONGITUDE": "52.418242",
            "PARENT_ID": "54",
            "PARENT_NAME": "Оренбургская область",
            "NAME": "Бугуруслан",
            "TYPE": "CITY"
        },
        {
            "ID": "1458",
            "CODE": "0000514992",
            "TYPE_NAME": "Город",
            "LEFT_MARGIN": "3466",
            "RIGHT_MARGIN": "3467",
            "CITY_ID": "1458",
            "REGION_ID": "40",
            "COUNTRY_ID": "1",
            "LATITUDE": "0.000000",
            "LONGITUDE": "0.000000",
            "PARENT_ID": "1457",
            "PARENT_NAME": "Буденновский район",
            "NAME": "Буденновск",
            "TYPE": "CITY"
        },
        {
            "ID": "1972",
            "CODE": "0000712004",
            "TYPE_NAME": "Город",
            "LEFT_MARGIN": "2305",
            "RIGHT_MARGIN": "2306",
            "CITY_ID": "1972",
            "REGION_ID": "54",
            "COUNTRY_ID": "1",
            "LATITUDE": "52.788502",
            "LONGITUDE": "52.253899",
            "PARENT_ID": "54",
            "PARENT_NAME": "Оренбургская область",
            "NAME": "Бузулук",
            "TYPE": "CITY"
        },
        {
            "ID": "1581",
            "CODE": "0000560130",
            "TYPE_NAME": "Город",
            "LEFT_MARGIN": "3204",
            "RIGHT_MARGIN": "3205",
            "CITY_ID": "1581",
            "REGION_ID": "45",
            "COUNTRY_ID": "1",
            "LATITUDE": "54.972287",
            "LONGITUDE": "48.292896",
            "PARENT_ID": "1580",
            "PARENT_NAME": "Буинский район",
            "NAME": "Буинск",
            "TYPE": "CITY"
        },
        {
            "ID": "335",
            "CODE": "0000160825",
            "TYPE_NAME": "Город",
            "LEFT_MARGIN": "5790",
            "RIGHT_MARGIN": "5791",
            "CITY_ID": "335",
            "REGION_ID": "6",
            "COUNTRY_ID": "1",
            "LATITUDE": "58.481682",
            "LONGITUDE": "41.532956",
            "PARENT_ID": "334",
            "PARENT_NAME": "Буйский район",
            "NAME": "Буй",
            "TYPE": "CITY"
        },
        {
            "ID": "752",
            "CODE": "0000297811",
            "TYPE_NAME": "Город",
            "LEFT_MARGIN": "4938",
            "RIGHT_MARGIN": "4939",
            "CITY_ID": "752",
            "REGION_ID": "17",
            "COUNTRY_ID": "1",
            "LATITUDE": "50.828491",
            "LONGITUDE": "40.587322",
            "PARENT_ID": "751",
            "PARENT_NAME": "Бутурлиновский район",
            "NAME": "Бутурлиновка",
            "TYPE": "CITY"
        },
        {
            "ID": "1106",
            "CODE": "0000379300",
            "TYPE_NAME": "Город",
            "LEFT_MARGIN": "4202",
            "RIGHT_MARGIN": "4203",
            "CITY_ID": "1106",
            "REGION_ID": "28",
            "COUNTRY_ID": "1",
            "LATITUDE": "57.979141",
            "LONGITUDE": "33.253799",
            "PARENT_ID": "1105",
            "PARENT_NAME": "Валдайский район",
            "NAME": "Валдай",
            "TYPE": "CITY"
        },
        {
            "ID": "218",
            "CODE": "0000135999",
            "TYPE_NAME": "Город",
            "LEFT_MARGIN": "6034",
            "RIGHT_MARGIN": "6035",
            "CITY_ID": "218",
            "REGION_ID": "3",
            "COUNTRY_ID": "1",
            "LATITUDE": "50.211296",
            "LONGITUDE": "38.100227",
            "PARENT_ID": "217",
            "PARENT_NAME": "Валуйский район",
            "NAME": "Валуйки",
            "TYPE": "CITY"
        },
        {
            "ID": "504",
            "CODE": "0000210411",
            "TYPE_NAME": "Город",
            "LEFT_MARGIN": "5444",
            "RIGHT_MARGIN": "5445",
            "CITY_ID": "504",
            "REGION_ID": "11",
            "COUNTRY_ID": "1",
            "LATITUDE": "55.604522",
            "LONGITUDE": "31.194998",
            "PARENT_ID": "503",
            "PARENT_NAME": "Велижский район",
            "NAME": "Велиж",
            "TYPE": "CITY"
        },
        {
            "ID": "1062",
            "CODE": "0000363367",
            "TYPE_NAME": "Город",
            "LEFT_MARGIN": "4213",
            "RIGHT_MARGIN": "4214",
            "CITY_ID": "1062",
            "REGION_ID": "27",
            "COUNTRY_ID": "1",
            "LATITUDE": "56.342361",
            "LONGITUDE": "30.527922",
            "PARENT_ID": "27",
            "PARENT_NAME": "Псковская область",
            "NAME": "Великие Луки",
            "TYPE": "CITY"
        },
        {
            "ID": "1064",
            "CODE": "0000364859",
            "TYPE_NAME": "Город",
            "LEFT_MARGIN": "4286",
            "RIGHT_MARGIN": "4287",
            "CITY_ID": "1064",
            "REGION_ID": "27",
            "COUNTRY_ID": "1",
            "LATITUDE": "56.342361",
            "LONGITUDE": "30.527922",
            "PARENT_ID": "1063",
            "PARENT_NAME": "Великолукский район",
            "NAME": "Великие Луки-1",
            "TYPE": "CITY"
        },
        {
            "ID": "1101",
            "CODE": "0000377795",
            "TYPE_NAME": "Город",
            "LEFT_MARGIN": "4147",
            "RIGHT_MARGIN": "4148",
            "CITY_ID": "1101",
            "REGION_ID": "28",
            "COUNTRY_ID": "1",
            "LATITUDE": "58.520986",
            "LONGITUDE": "31.275786",
            "PARENT_ID": "28",
            "PARENT_NAME": "Новгородская область",
            "NAME": "Великий Новгород",
            "TYPE": "CITY"
        },
        {
            "ID": "936",
            "CODE": "0000340452",
            "TYPE_NAME": "Город",
            "LEFT_MARGIN": "4554",
            "RIGHT_MARGIN": "4557",
            "CITY_ID": "936",
            "REGION_ID": "23",
            "COUNTRY_ID": "1",
            "LATITUDE": "60.761285",
            "LONGITUDE": "46.301467",
            "PARENT_ID": "935",
            "PARENT_NAME": "Великоустюгский район",
            "NAME": "Великий Устюг",
            "TYPE": "CITY"
        },
        {
            "ID": "974",
            "CODE": "0000111951",
            "TYPE_NAME": "Город",
            "LEFT_MARGIN": "4480",
            "RIGHT_MARGIN": "4481",
            "CITY_ID": "974",
            "REGION_ID": "24",
            "COUNTRY_ID": "1",
            "LATITUDE": "61.075645",
            "LONGITUDE": "42.097958",
            "PARENT_ID": "973",
            "PARENT_NAME": "Вельский район",
            "NAME": "Вельск",
            "TYPE": "CITY"
        },
        {
            "ID": "638",
            "CODE": "0000254357",
            "TYPE_NAME": "Город",
            "LEFT_MARGIN": "5170",
            "RIGHT_MARGIN": "5171",
            "CITY_ID": "638",
            "REGION_ID": "14",
            "COUNTRY_ID": "1",
            "LATITUDE": "54.336390",
            "LONGITUDE": "38.029836",
            "PARENT_ID": "637",
            "PARENT_NAME": "Веневский район",
            "NAME": "Венев",
            "TYPE": "CITY"
        },
        {
            "ID": "1886",
            "CODE": "0000679197",
            "TYPE_NAME": "Город",
            "LEFT_MARGIN": "2592",
            "RIGHT_MARGIN": "2593",
            "CITY_ID": "1886",
            "REGION_ID": "52",
            "COUNTRY_ID": "1",
            "LATITUDE": "58.072105",
            "LONGITUDE": "54.667485",
            "PARENT_ID": "1885",
            "PARENT_NAME": "Верещагинский район",
            "NAME": "Верещагино",
            "TYPE": "CITY"
        },
        {
            "ID": "157",
            "CODE": "0000051773",
            "TYPE_NAME": "Город",
            "LEFT_MARGIN": "6218",
            "RIGHT_MARGIN": "6219",
            "CITY_ID": "157",
            "REGION_ID": "2",
            "COUNTRY_ID": "1",
            "LATITUDE": "55.343238",
            "LONGITUDE": "36.185145",
            "PARENT_ID": "155",
            "PARENT_NAME": "Наро-Фоминский район",
            "NAME": "Верея",
            "TYPE": "CITY"
        },
        {
            "ID": "2390",
            "CODE": "0000866509",
            "TYPE_NAME": "Город",
            "LEFT_MARGIN": "1572",
            "RIGHT_MARGIN": "1573",
            "CITY_ID": "2390",
            "REGION_ID": "63",
            "COUNTRY_ID": "1",
            "LATITUDE": "53.878002",
            "LONGITUDE": "59.211380",
            "PARENT_ID": "2389",
            "PARENT_NAME": "Верхнеуральский район",
            "NAME": "Верхнеуральск",
            "TYPE": "CITY"
        },
        {
            "ID": "2233",
            "CODE": "0000822986",
            "TYPE_NAME": "Город",
            "LEFT_MARGIN": "1815",
            "RIGHT_MARGIN": "1816",
            "CITY_ID": "2233",
            "REGION_ID": "59",
            "COUNTRY_ID": "1",
            "LATITUDE": "57.374805",
            "LONGITUDE": "59.932035",
            "PARENT_ID": "59",
            "PARENT_NAME": "Свердловская область",
            "NAME": "Верхний Тагил",
            "TYPE": "CITY"
        },
        {
            "ID": "2356",
            "CODE": "0000856860",
            "TYPE_NAME": "Город",
            "LEFT_MARGIN": "1489",
            "RIGHT_MARGIN": "1490",
            "CITY_ID": "2356",
            "REGION_ID": "63",
            "COUNTRY_ID": "1",
            "LATITUDE": "56.052029",
            "LONGITUDE": "60.226448",
            "PARENT_ID": "63",
            "PARENT_NAME": "Челябинская область",
            "NAME": "Верхний Уфалей",
            "TYPE": "CITY"
        },
        {
            "ID": "2207",
            "CODE": "0000815343",
            "TYPE_NAME": "Город",
            "LEFT_MARGIN": "1763",
            "RIGHT_MARGIN": "1764",
            "CITY_ID": "2207",
            "REGION_ID": "59",
            "COUNTRY_ID": "1",
            "LATITUDE": "56.972468",
            "LONGITUDE": "60.573893",
            "PARENT_ID": "59",
            "PARENT_NAME": "Свердловская область",
            "NAME": "Верхняя Пышма",
            "TYPE": "CITY"
        },
        {
            "ID": "2247",
            "CODE": "0000827451",
            "TYPE_NAME": "Город",
            "LEFT_MARGIN": "1902",
            "RIGHT_MARGIN": "1903",
            "CITY_ID": "2247",
            "REGION_ID": "59",
            "COUNTRY_ID": "1",
            "LATITUDE": "58.043598",
            "LONGITUDE": "60.554832",
            "PARENT_ID": "2246",
            "PARENT_NAME": "Верхнесалдинский район",
            "NAME": "Верхняя Салда",
            "TYPE": "CITY"
        },
        {
            "ID": "2236",
            "CODE": "0000823502",
            "TYPE_NAME": "Город",
            "LEFT_MARGIN": "1821",
            "RIGHT_MARGIN": "1822",
            "CITY_ID": "2236",
            "REGION_ID": "59",
            "COUNTRY_ID": "1",
            "LATITUDE": "58.360500",
            "LONGITUDE": "59.818230",
            "PARENT_ID": "59",
            "PARENT_NAME": "Свердловская область",
            "NAME": "Верхняя Тура",
            "TYPE": "CITY"
        },
        {
            "ID": "2249",
            "CODE": "0000827679",
            "TYPE_NAME": "Город",
            "LEFT_MARGIN": "1898",
            "RIGHT_MARGIN": "1899",
            "CITY_ID": "2249",
            "REGION_ID": "59",
            "COUNTRY_ID": "1",
            "LATITUDE": "58.861702",
            "LONGITUDE": "60.809338",
            "PARENT_ID": "2248",
            "PARENT_NAME": "Верхотурский район",
            "NAME": "Верхотурье",
            "TYPE": "CITY"
        },
        {
            "ID": "2981",
            "CODE": "0001051263",
            "TYPE_NAME": "Город",
            "LEFT_MARGIN": "330",
            "RIGHT_MARGIN": "331",
            "CITY_ID": "2981",
            "REGION_ID": "80",
            "COUNTRY_ID": "1",
            "LATITUDE": "67.549507",
            "LONGITUDE": "133.387462",
            "PARENT_ID": "2980",
            "PARENT_NAME": "Верхоянский улус",
            "NAME": "Верхоянск",
            "TYPE": "CITY"
        },
        {
            "ID": "585",
            "CODE": "0000236102",
            "TYPE_NAME": "Город",
            "LEFT_MARGIN": "5286",
            "RIGHT_MARGIN": "5287",
            "CITY_ID": "585",
            "REGION_ID": "13",
            "COUNTRY_ID": "1",
            "LATITUDE": "58.663726",
            "LONGITUDE": "37.262650",
            "PARENT_ID": "584",
            "PARENT_NAME": "Весьегонский район",
            "NAME": "Весьегонск",
            "TYPE": "CITY"
        },
        {
            "ID": "1720",
            "CODE": "0000609830",
            "TYPE_NAME": "Город",
            "LEFT_MARGIN": "2934",
            "RIGHT_MARGIN": "2935",
            "CITY_ID": "1720",
            "REGION_ID": "48",
            "COUNTRY_ID": "1",
            "LATITUDE": "57.852870",
            "LONGITUDE": "45.775716",
            "PARENT_ID": "1719",
            "PARENT_NAME": "Ветлужский район",
            "NAME": "Ветлуга",
            "TYPE": "CITY"
        },
        {
            "ID": "145",
            "CODE": "0000045110",
            "TYPE_NAME": "Город",
            "LEFT_MARGIN": "6240",
            "RIGHT_MARGIN": "6241",
            "CITY_ID": "145",
            "REGION_ID": "2",
            "COUNTRY_ID": "1",
            "LATITUDE": "55.557150",
            "LONGITUDE": "37.708714",
            "PARENT_ID": "144",
            "PARENT_NAME": "Ленинский район",
            "NAME": "Видное",
            "TYPE": "CITY"
        },
        {
            "ID": "2984",
            "CODE": "0001052073",
            "TYPE_NAME": "Город",
            "LEFT_MARGIN": "326",
            "RIGHT_MARGIN": "327",
            "CITY_ID": "2984",
            "REGION_ID": "80",
            "COUNTRY_ID": "1",
            "LATITUDE": "63.754082",
            "LONGITUDE": "121.626549",
            "PARENT_ID": "2983",
            "PARENT_NAME": "Вилюйский улус",
            "NAME": "Вилюйск",
            "TYPE": "CITY"
        },
        {
            "ID": "2949",
            "CODE": "0001046036",
            "TYPE_NAME": "Город",
            "LEFT_MARGIN": "369",
            "RIGHT_MARGIN": "370",
            "CITY_ID": "2949",
            "REGION_ID": "78",
            "COUNTRY_ID": "1",
            "LATITUDE": "52.931834",
            "LONGITUDE": "158.405383",
            "PARENT_ID": "78",
            "PARENT_NAME": "Камчатский край",
            "NAME": "Вилючинск",
            "TYPE": "CITY"
        },
        {
            "ID": "2434",
            "CODE": "0000883717",
            "TYPE_NAME": "Город",
            "LEFT_MARGIN": "1482",
            "RIGHT_MARGIN": "1483",
            "CITY_ID": "2434",
            "REGION_ID": "64",
            "COUNTRY_ID": "1",
            "LATITUDE": "56.124722",
            "LONGITUDE": "101.171951",
            "PARENT_ID": "2433",
            "PARENT_NAME": "Братский район",
            "NAME": "Вихоревка",
            "TYPE": "CITY"
        },
        {
            "ID": "252",
            "CODE": "0000124665",
            "TYPE_NAME": "Город",
            "LEFT_MARGIN": "5960",
            "RIGHT_MARGIN": "5961",
            "CITY_ID": "252",
            "REGION_ID": "4",
            "COUNTRY_ID": "1",
            "LATITUDE": "57.220222",
            "LONGITUDE": "41.924561",
            "PARENT_ID": "251",
            "PARENT_NAME": "Вичугский район",
            "NAME": "Вичуга",
            "TYPE": "CITY"
        },
        {
            "ID": "3016",
            "CODE": "0001058581",
            "TYPE_NAME": "Город",
            "LEFT_MARGIN": "175",
            "RIGHT_MARGIN": "176",
            "CITY_ID": "3016",
            "REGION_ID": "81",
            "COUNTRY_ID": "1",
            "LATITUDE": "43.115068",
            "LONGITUDE": "131.885577",
            "PARENT_ID": "81",
            "PARENT_NAME": "Приморский край",
            "NAME": "Владивосток",
            "TYPE": "CITY"
        },
        {
            "ID": "1431",
            "CODE": "0000507473",
            "TYPE_NAME": "Город",
            "LEFT_MARGIN": "3475",
            "RIGHT_MARGIN": "3476",
            "CITY_ID": "1431",
            "REGION_ID": "39",
            "COUNTRY_ID": "1",
            "LATITUDE": "43.024593",
            "LONGITUDE": "44.682110",
            "PARENT_ID": "39",
            "PARENT_NAME": "Республика Северная Осетия-Алания",
            "NAME": "Владикавказ",
            "TYPE": "CITY"
        },
        {
            "ID": "789",
            "CODE": "0000312126",
            "TYPE_NAME": "Город",
            "LEFT_MARGIN": "4777",
            "RIGHT_MARGIN": "4778",
            "CITY_ID": "789",
            "REGION_ID": "18",
            "COUNTRY_ID": "1",
            "LATITUDE": "56.128890",
            "LONGITUDE": "40.407520",
            "PARENT_ID": "18",
            "PARENT_NAME": "Владимирская область",
            "NAME": "Владимир",
            "TYPE": "CITY"
        },
        {
            "ID": "1197",
            "CODE": "0000426112",
            "TYPE_NAME": "Город",
            "LEFT_MARGIN": "3885",
            "RIGHT_MARGIN": "3886",
            "CITY_ID": "1197",
            "REGION_ID": "32",
            "COUNTRY_ID": "1",
            "LATITUDE": "48.708191",
            "LONGITUDE": "44.515335",
            "PARENT_ID": "32",
            "PARENT_NAME": "Волгоградская область",
            "NAME": "Волгоград",
            "TYPE": "CITY"
        },
        {
            "ID": "1250",
            "CODE": "0000447903",
            "TYPE_NAME": "Город",
            "LEFT_MARGIN": "3753",
            "RIGHT_MARGIN": "3754",
            "CITY_ID": "1250",
            "REGION_ID": "33",
            "COUNTRY_ID": "1",
            "LATITUDE": "47.541227",
            "LONGITUDE": "42.227890",
            "PARENT_ID": "33",
            "PARENT_NAME": "Ростовская область",
            "NAME": "Волгодонск",
            "TYPE": "CITY"
        },
        {
            "ID": "332",
            "CODE": "0000160154",
            "TYPE_NAME": "Город",
            "LEFT_MARGIN": "5725",
            "RIGHT_MARGIN": "5726",
            "CITY_ID": "332",
            "REGION_ID": "6",
            "COUNTRY_ID": "1",
            "LATITUDE": "57.440105",
            "LONGITUDE": "41.157181",
            "PARENT_ID": "6",
            "PARENT_NAME": "Костромская область",
            "NAME": "Волгореченск",
            "TYPE": "CITY"
        },
        {
            "ID": "1627",
            "CODE": "0000577790",
            "TYPE_NAME": "Город",
            "LEFT_MARGIN": "3069",
            "RIGHT_MARGIN": "3070",
            "CITY_ID": "1627",
            "REGION_ID": "46",
            "COUNTRY_ID": "1",
            "LATITUDE": "55.863658",
            "LONGITUDE": "48.361860",
            "PARENT_ID": "46",
            "PARENT_NAME": "Республика Марий Эл",
            "NAME": "Волжск",
            "TYPE": "CITY"
        },
        {
            "ID": "1198",
            "CODE": "0000428505",
            "TYPE_NAME": "Город",
            "LEFT_MARGIN": "3887",
            "RIGHT_MARGIN": "3888",
            "CITY_ID": "1198",
            "REGION_ID": "32",
            "COUNTRY_ID": "1",
            "LATITUDE": "48.782102",
            "LONGITUDE": "44.777984",
            "PARENT_ID": "32",
            "PARENT_NAME": "Волгоградская область",
            "NAME": "Волжский",
            "TYPE": "CITY"
        },
        {
            "ID": "927",
            "CODE": "0000336617",
            "TYPE_NAME": "Город",
            "LEFT_MARGIN": "4487",
            "RIGHT_MARGIN": "4488",
            "CITY_ID": "927",
            "REGION_ID": "23",
            "COUNTRY_ID": "1",
            "LATITUDE": "59.218876",
            "LONGITUDE": "39.893276",
            "PARENT_ID": "23",
            "PARENT_NAME": "Вологодская область",
            "NAME": "Вологда",
            "TYPE": "CITY"
        },
        {
            "ID": "1724",
            "CODE": "0000610995",
            "TYPE_NAME": "Город",
            "LEFT_MARGIN": "2930",
            "RIGHT_MARGIN": "2931",
            "CITY_ID": "1724",
            "REGION_ID": "48",
            "COUNTRY_ID": "1",
            "LATITUDE": "56.224304",
            "LONGITUDE": "43.182655",
            "PARENT_ID": "1723",
            "PARENT_NAME": "Володарский район",
            "NAME": "Володарск",
            "TYPE": "CITY"
        },
        {
            "ID": "119",
            "CODE": "0000035146",
            "TYPE_NAME": "Город",
            "LEFT_MARGIN": "6290",
            "RIGHT_MARGIN": "6291",
            "CITY_ID": "119",
            "REGION_ID": "2",
            "COUNTRY_ID": "1",
            "LATITUDE": "56.036013",
            "LONGITUDE": "35.958336",
            "PARENT_ID": "118",
            "PARENT_NAME": "Волоколамский район",
            "NAME": "Волоколамск",
            "TYPE": "CITY"
        },
        {
            "ID": "829",
            "CODE": "0000079572",
            "TYPE_NAME": "Город",
            "LEFT_MARGIN": "4762",
            "RIGHT_MARGIN": "4763",
            "CITY_ID": "829",
            "REGION_ID": "20",
            "COUNTRY_ID": "1",
            "LATITUDE": "59.444394",
            "LONGITUDE": "29.492516",
            "PARENT_ID": "828",
            "PARENT_NAME": "Волосовский район",
            "NAME": "Волосово",
            "TYPE": "CITY"
        },
        {
            "ID": "835",
            "CODE": "0000081017",
            "TYPE_NAME": "Город",
            "LEFT_MARGIN": "4748",
            "RIGHT_MARGIN": "4749",
            "CITY_ID": "835",
            "REGION_ID": "20",
            "COUNTRY_ID": "1",
            "LATITUDE": "59.927587",
            "LONGITUDE": "32.327680",
            "PARENT_ID": "834",
            "PARENT_NAME": "Волховский район",
            "NAME": "Волхов",
            "TYPE": "CITY"
        },
        {
            "ID": "2231",
            "CODE": "0000822773",
            "TYPE_NAME": "Город",
            "LEFT_MARGIN": "1811",
            "RIGHT_MARGIN": "1812",
            "CITY_ID": "2231",
            "REGION_ID": "59",
            "COUNTRY_ID": "1",
            "LATITUDE": "59.934718",
            "LONGITUDE": "60.077968",
            "PARENT_ID": "59",
            "PARENT_NAME": "Свердловская область",
            "NAME": "Волчанск",
            "TYPE": "CITY"
        },
        {
            "ID": "2126",
            "CODE": "0000780261",
            "TYPE_NAME": "Город",
            "LEFT_MARGIN": "2085",
            "RIGHT_MARGIN": "2088",
            "CITY_ID": "2126",
            "REGION_ID": "57",
            "COUNTRY_ID": "1",
            "LATITUDE": "52.042755",
            "LONGITUDE": "47.386032",
            "PARENT_ID": "57",
            "PARENT_NAME": "Саратовская область",
            "NAME": "Вольск",
            "TYPE": "CITY"
        },
        {
            "ID": "2127",
            "CODE": "0000780569",
            "TYPE_NAME": "Город",
            "LEFT_MARGIN": "2086",
            "RIGHT_MARGIN": "2087",
            "CITY_ID": "2127",
            "REGION_ID": "57",
            "COUNTRY_ID": "1",
            "LATITUDE": "52.102174",
            "LONGITUDE": "47.155921",
            "PARENT_ID": "2126",
            "PARENT_NAME": "Вольск",
            "NAME": "Вольск-18",
            "TYPE": "CITY"
        },
        {
            "ID": "877",
            "CODE": "0000324802",
            "TYPE_NAME": "Город",
            "LEFT_MARGIN": "4629",
            "RIGHT_MARGIN": "4630",
            "CITY_ID": "877",
            "REGION_ID": "21",
            "COUNTRY_ID": "1",
            "LATITUDE": "67.494854",
            "LONGITUDE": "64.039947",
            "PARENT_ID": "21",
            "PARENT_NAME": "Республика Коми",
            "NAME": "Воркута",
            "TYPE": "CITY"
        },
        {
            "ID": "741",
            "CODE": "0000293598",
            "TYPE_NAME": "Город",
            "LEFT_MARGIN": "4857",
            "RIGHT_MARGIN": "4858",
            "CITY_ID": "741",
            "REGION_ID": "17",
            "COUNTRY_ID": "1",
            "LATITUDE": "51.660598",
            "LONGITUDE": "39.200586",
            "PARENT_ID": "17",
            "PARENT_NAME": "Воронежская область",
            "NAME": "Воронеж",
            "TYPE": "CITY"
        },
        {
            "ID": "745",
            "CODE": "0000296628",
            "TYPE_NAME": "Город",
            "LEFT_MARGIN": "4861",
            "RIGHT_MARGIN": "4862",
            "CITY_ID": "745",
            "REGION_ID": "17",
            "COUNTRY_ID": "1",
            "LATITUDE": "51.411946",
            "LONGITUDE": "41.928063",
            "PARENT_ID": "17",
            "PARENT_NAME": "Воронежская область",
            "NAME": "Воронеж-45",
            "TYPE": "CITY"
        },
        {
            "ID": "1749",
            "CODE": "0000618545",
            "TYPE_NAME": "Город",
            "LEFT_MARGIN": "2896",
            "RIGHT_MARGIN": "2897",
            "CITY_ID": "1749",
            "REGION_ID": "48",
            "COUNTRY_ID": "1",
            "LATITUDE": "55.988102",
            "LONGITUDE": "43.275486",
            "PARENT_ID": "1747",
            "PARENT_NAME": "Павловский район",
            "NAME": "Ворсма",
            "TYPE": "CITY"
        },
        {
            "ID": "121",
            "CODE": "0000036585",
            "TYPE_NAME": "Город",
            "LEFT_MARGIN": "6286",
            "RIGHT_MARGIN": "6287",
            "CITY_ID": "121",
            "REGION_ID": "2",
            "COUNTRY_ID": "1",
            "LATITUDE": "55.322518",
            "LONGITUDE": "38.681682",
            "PARENT_ID": "120",
            "PARENT_NAME": "Воскресенский район",
            "NAME": "Воскресенск",
            "TYPE": "CITY"
        },
        {
            "ID": "1773",
            "CODE": "0000625428",
            "TYPE_NAME": "Город",
            "LEFT_MARGIN": "2741",
            "RIGHT_MARGIN": "2742",
            "CITY_ID": "1773",
            "REGION_ID": "49",
            "COUNTRY_ID": "1",
            "LATITUDE": "57.052505",
            "LONGITUDE": "53.990612",
            "PARENT_ID": "49",
            "PARENT_NAME": "Удмуртская Республика",
            "NAME": "Воткинск",
            "TYPE": "CITY"
        },
        {
            "ID": "840",
            "CODE": "0000084205",
            "TYPE_NAME": "Город",
            "LEFT_MARGIN": "4744",
            "RIGHT_MARGIN": "4745",
            "CITY_ID": "840",
            "REGION_ID": "20",
            "COUNTRY_ID": "1",
            "LATITUDE": "60.024006",
            "LONGITUDE": "30.646042",
            "PARENT_ID": "838",
            "PARENT_NAME": "Всеволожский район",
            "NAME": "Всеволожск",
            "TYPE": "CITY"
        },